Name,Date_of_Birth,Place_of_Birth,Date_of_Death,Place_of_Death,Name_of_Spouse,Date_of_Marriage,Date_of_Divorce,Number_of_Marriage,Number_of_Divorce,Number_of_Children,Marriages_End_in_Death,Date_of_Birth_Spouse,Place_of_Birth_Spouse,Date_of_Death_Spouse,Place_of_Death_Spouse,Number_of_Marriage_Spouse,Number_of_Divorce_Spouse,Number_of_Children_Spouse,First_Marriage,Sex,Age,Age_at_Marriage,Age_at_Divorce,Age_of_Spouse,Age_at_Marriage_Spouse,Age_at_Divorce_Spouse,Duration_of_Marriage,Age_Difference,Number_of_Roles,Profession,Spouse_is_Celebrity,Married,Divorced,Alive_or_Dead,Alive_or_Dead_Spouse,Latitude,Longitude,Latitude_Spouse,Longitude_Spouse,Distance
Almeda Abazi,1992-02-13,"Tirana, Albania",,,Tolgahan Sayışman ​,2017-01-01,,1.0,0.0,2.0,0.0,,,,,,,,0,F,31.0,25.0,,,,,6.0,,1,model,0,1,0,0,0,41.3275459,19.8186982,,,
Angela Martini,1986-05-23,"Shkodër, Albania",,,Dragoş Săvulescu ​,2017-01-01,,1.0,0.0,,0.0,,,,,,,,0,F,37.0,31.0,,,,,6.0,,1,model,0,1,0,0,0,42.0692985,19.5032559,,,
Natalia Anatolievna Shimanchuk,1973-03-10,"Tashkent, Uzbek SSR, USSR",,,Amir Ebrahim Pahlavi Alam​ ​,1998-01-01,2004-01-01,1.0,1.0,1.0,0.0,,,,,,,,0,F,50.0,25.0,31.0,,,,6.0,,2,"model, actor/actress",0,1,1,0,0,41.2994958,69.2400734,,,
Kim Marie Alexis,1960-07-15,"Lockport, New York, U.S.",,,Jim Stockton​ ​,1983-01-01,1992-01-01,3.0,2.0,3.0,0.0,,,,,,,,0,F,63.0,23.0,32.0,,,,9.0,,1,model,0,1,1,0,0,43.1706128,-78.6903098,,,
Kristian-Joy Alfonso,1963-09-05,"Brockton, Massachusetts, U.S.",,,Simon Macauley​ ​,1987-01-01,1991-01-01,2.0,2.0,3.0,0.0,,,,,,,,0,F,60.0,24.0,28.0,,,,4.0,,2,"model, actor/actress",0,1,1,0,0,42.0834335,-71.0183787,,,
Nicole Natalie Austin,1979-03-17,"Tarzana, California, U.S.",,,Mike Williams​ ​,1999-01-01,2001-01-01,2.0,1.0,1.0,0.0,,,,,,,,0,F,44.0,20.0,22.0,,,,2.0,,1,model,0,1,1,0,0,34.1494848,-118.5506158,,,
Cynthia Denise Bailey,1967-02-19,"Decatur, Alabama, U.S.",,,Peter Thomas​ ​,2010-01-01,2017-01-01,2.0,2.0,1.0,0.0,,,,,,,,0,F,56.0,43.0,50.0,,,,7.0,,1,model,0,1,1,0,0,34.6059253,-86.9833417,,,
Drew Blythe Barrymore,1975-02-22,"Culver City, California, U.S.",,,Jeremy Thomas​ ​,1994-01-01,1995-01-01,3.0,3.0,2.0,0.0,,,,,,,,0,F,48.0,19.0,20.0,,,,1.0,,3,"model, actor/actress, director",0,1,1,0,0,34.0211224,-118.3964665,,,
Susan Linda Bay,1943-03-16,"Los Angeles, California, U.S.",,,Conrad John Schuck Jr.,1978-01-01,1983-01-01,2.0,1.0,1.0,1.0,1940-02-04,"Boston, Massachusetts, U.S",,,2.0,1.0,1.0,1,F,80.0,35.0,40.0,83.0,38.0,43.0,5.0,3.0,2,"model, actor/actress",1,1,1,0,0,34.0549076,-118.242643,42.3600825,-71.0588801,4169.38522143283
Catherine Lisa Bell,1968-08-14,"London, England",,,Adam Beason​ ​,1994-01-01,2011-01-01,1.0,1.0,2.0,0.0,,,,,,,,0,F,55.0,26.0,43.0,,,,17.0,,2,"model, actor/actress",0,1,1,0,0,51.5072178,-0.1275862,,,
Elizabeth Berkley,,"Farmington Hills, Michigan, U.S.",,,Greg Lauren Dana Smith,2003-01-01,,1.0,0.0,1.0,0.0,1970-01-06,"New York City, U.S.",,,1.0,0.0,1.0,1,F,,,,53.0,33.0,,20.0,,3,"model, actor/actress, dancer",1,1,0,0,0,42.4989936,-83.3677168,40.7127753,-74.0059728,802.8387851996007
Maria Halle Berry,1966-08-14,"Cleveland, Ohio, U.S.",,,David Justice​ ​,1993-01-01,1997-01-01,3.0,3.0,2.0,0.0,,,,,,,,0,F,57.0,27.0,31.0,,,,4.0,,2,"model, actor/actress",0,1,1,0,0,41.49932,-81.6943605,,,
Susan Blakely,1948-09-07,"Frankfurt, Germany",,,Todd Merer​ ​,1969-01-01,1981-01-01,2.0,1.0,,0.0,,,,,,,,0,F,75.0,21.0,33.0,,,,12.0,,2,"model, actor/actress",0,1,1,0,0,50.1109221,8.6821267,,,
Rosa Blasi,1972-12-19,"Chicago, Illinois, U.S.",,,Jim Finn​ ​,2004-01-01,2008-01-01,2.0,1.0,2.0,0.0,,,,,,,,0,F,51.0,32.0,36.0,,,,4.0,,4,"model, actor/actress, dancer, singer",0,1,1,0,0,41.8781136,-87.6297982,,,
Mary Angela Barnett,1949-09-25,"Ayios Dhometios, British Cyprus",,,David Robert Jones,1970-01-01,1980-01-01,1.0,1.0,2.0,0.0,1947-01-08,"London, England",2016-01-10,"New York City, US",2.0,1.0,2.0,0,F,74.0,21.0,31.0,69.0,23.0,33.0,10.0,2.0,3,"journalist, model, actor/actress",0,1,1,0,1,35.1727869,33.3290916,51.5072178,-0.1275862,3215.253494619379
Kathleen Joann Bradley,1951-01-10,"Girard, Ohio, U.S.",,,Bill Overton​ ​,1980-01-01,1984-01-01,2.0,1.0,2.0,0.0,,,,,,,,0,F,72.0,29.0,33.0,,,,4.0,,2,"model, actor/actress",0,1,1,0,0,41.1539465,-80.7014662,,,
Angelica Bridges,1970-11-20,"Harrisonville, Missouri, U.S.",,,Sheldon Souray​ ​,2002-01-01,2007-01-01,1.0,1.0,2.0,0.0,,,,,,,,0,F,53.0,32.0,37.0,,,,5.0,,2,"model, actor/actress",0,1,1,0,0,38.6533445,-94.3488372,,,
Christie Lee Hudson,1954-02-02,"Monroe, Michigan, U.S.",,,François Allaux ​ ​,1973-01-01,1981-01-01,4.0,4.0,3.0,0.0,,,,,,,,0,F,69.0,19.0,27.0,,,,8.0,,2,"model, actor/actress",0,1,1,0,0,41.9164343,-83.3977101,,,
Hannah Marcina Bronfman,1987-10-26,"New York City, U.S.",,,Brendan Fallis ​,2017-01-01,,1.0,0.0,2.0,0.0,,,,,,,,0,F,36.0,30.0,,,,,6.0,,1,model,0,1,0,0,0,40.7127753,-74.0059728,,,
Vanessa Urbieta Cornejo,1982-05-05,"Los Angeles, California, U.S.",,,Kobe Bryant​ ​,2001-01-01,,1.0,0.0,,1.0,,,,,,,,0,F,41.0,19.0,,,,,,,1,model,0,1,0,0,0,34.0549076,-118.242643,,,
Lauren Pierce Bush,1984-06-25,"Denver, Colorado, U.S.",,,David Lauren ​,2011-01-01,,1.0,0.0,3.0,0.0,1971-10-31,"New York City, U.S.",,,1.0,0.0,3.0,1,F,39.0,27.0,,52.0,40.0,,12.0,13.0,1,model,0,1,0,0,0,39.7392358,-104.990251,40.7127753,-74.0059728,2619.0531203045634
Barbara Kingsbury,1945-01-01,"Bluefields, Nicaragua",,,Otto Kurt Freiherr von Hoffman​ ​,1966-01-01,1972-01-01,3.0,3.0,,0.0,,,,,,,,0,F,78.0,21.0,27.0,,,,6.0,,2,"model, actor/actress",0,1,1,0,0,12.0111402,-83.7703693,,,
Dorthy Mae Towles,1922-07-26,"Texarkana, Texas, U.S.",2006-07-07,"New York City, U.S.",Dr. Nathaniel Alfonso Fearonce​ ​,1947-01-01,1950-01-01,2.0,1.0,2.0,1.0,,,,,,,,0,F,84.0,25.0,28.0,,,,3.0,,1,model,0,1,1,1,0,33.425125,-94.04768820000001,,,
Ciara Princess Harris,1985-10-25,"Fort Cavazos, Texas, U.S.",,,Russell Wilson ​,2016-01-01,,1.0,0.0,3.0,0.0,,,,,,,,0,F,38.0,31.0,,,,,7.0,,3,"model, dancer, singer",0,1,0,0,0,31.13633149999999,-97.7797049,,,
Susie Coelho,1953-12-07,"Cuckfield, Sussex, England",,,Sonny Bono​ ​,1981-01-01,1984-01-01,2.0,1.0,2.0,0.0,,,,,,,,0,F,70.0,28.0,31.0,,,,3.0,,2,"model, actor/actress",0,1,1,0,0,51.005813,-0.143636,,,
Isabelle Abiera Collins,1992-08-28,"California, U.S.",,,Pancho Angelo Acuña Magno,2017-01-01,2023-01-01,1.0,1.0,1.0,0.0,1986-10-02,"Marikina, Philippines",,,1.0,1.0,1.0,0,F,31.0,25.0,31.0,37.0,31.0,37.0,6.0,6.0,1,model,1,1,1,0,0,36.778261,-119.4179324,14.65073,121.1028546,11485.523097819481
Cynthia Ann Crawford,1966-02-20,"DeKalb, Illinois, U.S.",,,Richard Gere​ ​,1991-01-01,1995-01-01,2.0,1.0,2.0,0.0,1949-08-31,"Philadelphia, Pennsylvania, U.S.",,,3.0,2.0,3.0,0,F,57.0,25.0,29.0,74.0,42.0,46.0,4.0,17.0,2,"model, actor/actress",0,1,1,0,0,41.9295355,-88.74991279999999,39.9525839,-75.1652215,1160.7154078144192
Cathee Dahmen,1945-09-16,,1997-11-25,,Leonard Whiting​ ​,1971-01-01,1977-01-01,2.0,1.0,4.0,0.0,1950-06-30,"London, England",,,2.0,1.0,2.0,1,F,52.0,26.0,32.0,73.0,21.0,27.0,6.0,5.0,1,model,0,1,1,1,0,,,51.5072178,-0.1275862,
Torrey DeVitto,1984-06-08,"Huntington, New York, U.S.",,,Paweł Tomasz Wasilewski,2011-01-01,2013-01-01,1.0,1.0,,0.0,1982-07-23,"New Brunswick, New Jersey, U.S.",,,2.0,2.0,,1,F,39.0,27.0,29.0,41.0,29.0,31.0,2.0,2.0,2,"model, actor/actress",0,1,1,0,0,40.8681539,-73.425676,40.4862157,-74.4518188,96.39322783400993
Cameron Michelle Diaz,1972-08-30,"San Diego, California, U.S.",,,Benjamin Levi Combs,2015-01-01,,1.0,0.0,1.0,0.0,1979-03-11,"Waldorf, Maryland, U.S.",,,1.0,0.0,1.0,1,F,51.0,43.0,,44.0,36.0,,8.0,7.0,4,"musician, model, writers, actor/actress",0,1,0,0,0,32.715738,-117.1610838,38.6265124,-76.9105483,3664.9630149904324
Janice Dickinson,1955-02-16,"New York City, U.S.",,,Ron Levy​ ​,1977-01-01,1979-01-01,4.0,3.0,2.0,0.0,,,,,,,,0,F,68.0,22.0,24.0,,,,2.0,,4,"musician, model, writers, director",0,1,1,0,0,40.7127753,-74.0059728,,,
Rima Fakih,1985-09-22,"Srifa, Lebanon",,,Wassim Joseph Slaiby,2016-01-01,,1.0,0.0,3.0,0.0,1979-11-16,"Ghazir, Lebanon",,,1.0,0.0,3.0,1,F,38.0,31.0,,44.0,37.0,,7.0,6.0,1,model,0,1,0,0,0,33.2816736,35.3971423,34.0185834,35.6628902,85.553061503066
Loletha Elayne Falana,1942-09-11,"Camden, New Jersey, U.S.",,,Feliciano Tavares Jr.​ ​,1970-01-01,1975-01-01,1.0,1.0,,0.0,,,,,,,,0,F,81.0,28.0,33.0,,,,5.0,,3,"model, actor/actress, dancer",0,1,1,0,0,39.9259463,-75.1196199,,,
Ferrah Leni Fawcett,1947-02-02,"Corpus Christi, Texas, U.S.",2009-06-25,"Santa Monica, California, U.S.",Harvey Lee Yeary,1973-01-01,1982-01-01,1.0,1.0,1.0,0.0,1939-04-23,"Wyandotte, Michigan, U.S.",,,4.0,3.0,4.0,0,F,62.0,26.0,35.0,84.0,34.0,43.0,9.0,8.0,2,"model, actor/actress",1,1,1,1,0,27.8005828,-97.39638099999999,42.21420639999999,-83.14992389999999,2056.0633543444537
Jennifer Flavin Stallone,1968-08-14,"Los Angeles, California, U.S.",,,Sylvester Gardenzio Stallone,1997-01-01,,1.0,0.0,3.0,0.0,1946-07-06,"New York City, U.S.",,,3.0,2.0,5.0,0,F,55.0,29.0,,77.0,51.0,,26.0,22.0,1,model,1,1,0,0,0,34.0549076,-118.242643,40.7127753,-74.0059728,3935.536977390735
Julia Fox,1990-02-02,"Milan, Italy",,,Peter Artemiev​ ​,2018-01-01,2020-01-01,1.0,1.0,1.0,0.0,,,,,,,,0,F,33.0,28.0,30.0,,,,2.0,,1,model,0,1,1,0,0,45.4642035,9.189982,,,
Leila Marie Goldkuhl,1991-12-30,"Framingham, Massachusetts, U.S.",,,Robbie Masterson ​,2017-01-01,,1.0,0.0,2.0,0.0,,,,,,,,0,F,32.0,26.0,,,,,6.0,,1,model,0,1,0,0,0,42.279286,-71.4161565,,,
Shelley Marie Hack,1947-07-06,"Greenwich, Connecticut, U.S.",,,Harry Winer ​,1990-01-01,,1.0,0.0,1.0,0.0,1947-05-04,"Detroit, Michigan",,,1.0,0.0,1.0,1,F,76.0,43.0,,76.0,43.0,,33.0,0.0,2,"model, actor/actress",0,1,0,0,0,41.0262417,-73.6281964,42.331427,-83.0457538,795.0369178741907
Birgitta Wetterhall,1933-09-06,"Linköping, Sweden",2016-08-13,"Studio City, California",Leslie Jackson​ ​,1954-01-01,1957-01-01,3.0,2.0,3.0,1.0,,,,,,,,0,F,83.0,21.0,24.0,,,,3.0,,2,"model, actor/actress",0,1,1,1,0,58.41080700000001,15.6213727,,,
Florence Eloise Hardt,1917-09-17,"Lawton, Oklahoma, U.S.",2017-06-25,"Palos Verdes Estates, California, U.S.",Hans Habe​ ​,1948-01-01,1959-01-01,2.0,1.0,1.0,0.0,,,,,,,,0,F,100.0,31.0,42.0,,,,11.0,,2,"model, actor/actress",0,1,1,1,0,34.6035669,-98.39592909999999,,,
Angela Michelle Harmon,1972-08-10,"Highland Park, Texas, U.S.",,,Jason Sehorn​ ​,2001-01-01,2016-01-01,1.0,1.0,3.0,0.0,,,,,,,,0,F,51.0,29.0,44.0,,,,15.0,,2,"model, actor/actress",0,1,1,0,0,32.8334607,-96.79194539999999,,,
Marie Helvin,1952-08-13,"Tokyo, Japan",,,David Royston Bailey,1975-01-01,1985-01-01,1.0,1.0,,0.0,1938-01-02,"Leytonstone, Essex, England",,,4.0,3.0,3.0,0,F,71.0,23.0,33.0,85.0,37.0,47.0,10.0,14.0,1,model,0,1,1,0,0,35.6761919,139.6503106,51.57424469999999,0.4856781,9529.80084978308
Margot Louise Hemingway,1954-02-16,"Portland, Oregon, U.S.",1996-07-01,"Santa Monica, California, U.S.",Erroll Wetanson​ ​,1975-01-01,1978-01-01,2.0,2.0,,0.0,,,,,,,,0,F,42.0,21.0,24.0,,,,3.0,,2,"model, actor/actress",0,1,1,1,0,45.515232,-122.6783853,,,
Donna Rice Hughes,1958-01-07,"Delacroix, Louisiana, U.S.",,,Jack Hughes ​,1994-01-01,,1.0,0.0,,0.0,,,,,,,,0,F,65.0,36.0,,,,,29.0,,1,model,0,1,0,0,0,29.7615983,-89.79089669999999,,,
Dominique Jackson ,1975-03-20,"Scarborough, Trinidad and Tobago",,,Al Jackson​ ​,2016-01-01,2018-01-01,1.0,1.0,,0.0,,,,,,,,0,F,48.0,41.0,43.0,,,,2.0,,1,model,0,1,1,0,0,11.1869803,-60.7301511,,,
Janet Damita Jo Jackson,1966-05-16,"Gary, Indiana, US",,,James Curtis DeBarge,1984-01-01,1985-01-01,3.0,3.0,1.0,0.0,1963-08-22,"Detroit, Michigan, U.S.",,,1.0,1.0,3.0,1,F,57.0,18.0,19.0,60.0,21.0,22.0,1.0,3.0,4,"model, actor/actress, dancer, singer",0,1,1,0,0,41.6020403,-87.3371523,42.331427,-83.0457538,363.9080947737118
Celina Horan,1985-06-10,British Hong Kong,,,Han Geng ​,2019-01-01,,1.0,0.0,1.0,0.0,1984-02-09,"Mudanjiang, Heilongjiang, China",,,1.0,0.0,1.0,1,F,38.0,34.0,,39.0,35.0,,4.0,1.0,2,"model, actor/actress",0,1,0,0,0,,,44.5526899,129.63244,
Jarma Toy Lewis,1931-06-05,"Tuscaloosa, Alabama, U.S.",1985-11-12,"Los Angeles, California, U.S.",Benjamin Edward Bensinger III​ ​,1955-01-01,1984-01-01,1.0,1.0,3.0,0.0,,,,,,,,0,F,54.0,24.0,53.0,,,,29.0,,2,"model, actor/actress",0,1,1,1,0,33.2098407,-87.56917349999999,,,
Alicia Tully Jensen,1963-12-02,United States,,,Antonio Sabàto Jr.​ ​,1992-01-01,1993-01-01,1.0,1.0,,0.0,1972-02-29,"Rome, Italy",,,2.0,2.0,3.0,1,F,60.0,29.0,30.0,51.0,20.0,21.0,1.0,9.0,2,"model, actor/actress",0,1,1,0,0,37.09024,-95.712891,41.9027835,12.4963655,8612.32996339728
Hannah Jeter,1990-05-05,"St. Thomas, U.S. Virgin Islands",,,Derek Jeter ​,2016-01-01,,1.0,0.0,4.0,0.0,,,,,,,,0,F,33.0,26.0,,,,,7.0,,1,model,0,1,0,0,0,18.3380965,-64.8940946,,,
Olivia Jordan Thomas,1988-09-28,"Tulsa, Oklahoma, U.S.",,,Jay Hector ​,2019-01-01,,1.0,0.0,1.0,0.0,,,,,,,,0,F,35.0,31.0,,,,,4.0,,2,"model, actor/actress",0,1,0,0,0,36.1539816,-95.99277500000001,,,
Haley O'Brien,1992-08-06,"Excelsior, Minnesota, U.S.",,,Matt Kalil​ ​,2015-01-01,2022-01-01,1.0,1.0,,0.0,,,,,,,,0,F,31.0,23.0,30.0,,,,7.0,,1,model,0,1,1,0,0,44.9032963,-93.5663455,,,
Alison Parker Kay,,"Miami, FloridaUnited States",,,Prince Alexander von Fürstenberg​ ​,2020-01-01,,1.0,0.0,,0.0,,,,,,,,0,F,,,,,,,3.0,,1,model,0,1,0,0,0,25.7616798,-80.1917902,,,
Karlie Elizabeth Kloss,1992-08-03,"Chicago, Illinois, U.S.",,,Joshua Kushner ​,2018-01-01,,1.0,0.0,2.0,0.0,1985-06-12,"Livingston, New Jersey, U.S.",,,1.0,0.0,2.0,1,F,31.0,26.0,,38.0,33.0,,5.0,7.0,1,model,0,1,0,0,0,41.8781136,-87.6297982,40.7862871,-74.3300842,1115.943714789614
Heidi Klum,1973-06-01,"Bergisch Gladbach, West Germany",,,Ric Pipino​ ​,1997-01-01,2002-01-01,3.0,2.0,4.0,0.0,,,,,,,,0,F,50.0,24.0,29.0,,,,5.0,,2,"model, actor/actress",0,1,1,0,0,50.98964789999999,7.1229789,,,
Zoe Isabella Kravitz,1988-12-01,"Los Angeles, California, U.S.",,,Karl Glusman​ ​,2019-01-01,2021-01-01,1.0,1.0,,0.0,1988-01-03,"New York City, U.S.",,,1.0,1.0,,0,F,35.0,31.0,33.0,35.0,31.0,33.0,2.0,0.0,2,"model, actor/actress",0,1,1,0,0,34.0549076,-118.242643,40.7127753,-74.0059728,3935.536977390735
Vanessa Joy Minnillo,1980-11-09,"Angeles City, Philippines",,,Nicholas Scott Lachey,2011-01-01,,1.0,0.0,3.0,0.0,1973-11-09,"Harlan, Kentucky, U.S.",,,2.0,1.0,3.0,0,F,43.0,31.0,,50.0,38.0,,12.0,7.0,2,"model, actor/actress",1,1,0,0,0,15.1449853,120.5887029,36.8431441,-83.321848,13714.19806143381
Eva Maria LaRue,1966-12-27,"Long Beach, California, U.S.",,,John O'Hurley​ ​,1992-01-01,1994-01-01,3.0,3.0,1.0,0.0,,,,,,,,0,F,57.0,26.0,28.0,,,,2.0,,2,"model, actor/actress",0,1,1,0,0,33.7700504,-118.1937395,,,
Melinda Kae Ledbetter,1946-10-03,United States,,,Brian Wilson ​,1995-01-01,,1.0,0.0,,0.0,,,,,,,,0,F,77.0,49.0,,,,,28.0,,1,model,0,1,0,0,0,37.09024,-95.712891,,,
Ruta Mary Kilmonis,1935-05-30,"Montreal, Quebec, Canada",,,Webster B. Lowe Jr.​ ​,1976-01-01,,1.0,0.0,,1.0,,,,,,,,0,F,88.0,41.0,,,,,,,3,"model, actor/actress, dancer",0,1,0,0,0,45.5018869,-73.56739189999999,,,
Angela Lindvall,1979-01-14,"Midwest City, Oklahoma, U.S.",,,William Edwards​ ​,2002-01-01,2006-01-01,1.0,1.0,2.0,0.0,,,,,,,,0,F,44.0,23.0,27.0,,,,4.0,,2,"model, actor/actress",0,1,1,0,0,35.4495065,-97.3967019,,,
Margaret Ann Lipton,1946-08-30,"New York City, U.S.",2019-05-11,"Los Angeles, California, U.S.",Quincy Delight Jones Jr.,1974-01-01,1989-01-01,1.0,1.0,,0.0,1933-03-14,"Chicago, Illinois, U.S.",,,3.0,3.0,7.0,0,F,73.0,28.0,43.0,90.0,41.0,56.0,15.0,13.0,2,"model, actor/actress",0,1,1,1,0,40.7127753,-74.0059728,41.8781136,-87.6297982,1144.293950028263
Lisa Selesner,1978-05-26,Monaco,,,Daniel N Wu,2010-01-01,,1.0,0.0,1.0,0.0,1974-09-30,"Berkeley, California, U.S.",,,1.0,0.0,1.0,1,F,45.0,32.0,,49.0,36.0,,13.0,4.0,1,model,1,1,0,0,0,43.73841760000001,7.424615799999999,37.8715226,-122.273042,9624.220629419618
Sandra Louise Smith,1944-05-28,"Shelbyville, Tennessee, U.S.",2018-11-03,"Los Angeles, California, U.S.",Gordon Anderson ​,1967-01-01,,1.0,0.0,,0.0,,,,,,,,0,F,74.0,23.0,,,,,51.0,,3,"model, actor/actress, director",0,1,0,1,0,35.483406,-86.46027169999999,,,
Kristanna Loken,1979-10-08,"Ghent, New York, U.S.",,,Noah Danby​ ​,2008-01-01,2009-01-01,1.0,1.0,1.0,0.0,1974-04-24,"Guelph, Ontario, Canada",,,1.0,1.0,,1,F,44.0,29.0,30.0,49.0,34.0,35.0,1.0,5.0,2,"model, actor/actress",0,1,1,0,0,42.3292525,-73.6156735,43.5448048,-80.24816659999999,556.4154986789964
Eva Jacqueline Longoria,1975-03-15,"Corpus Christi, Texas, U.S.",,,Tyler Christopher Baker,2002-01-01,2004-01-01,3.0,2.0,1.0,0.0,1972-11-11,"Joliet, Illinois, U.S.",,,2.0,2.0,2.0,1,F,48.0,27.0,29.0,51.0,30.0,32.0,2.0,3.0,2,"model, actor/actress",0,1,1,0,0,27.8005828,-97.39638099999999,41.525031,-88.0817251,1745.1952790204891
Ally Love ,,,,,Andrew Haynes ​,2021-01-01,,1.0,0.0,,0.0,,,,,,,,0,F,,,,,,,2.0,,2,"model, dancer",0,1,0,0,0,,,,,
Carey Lowell,1961-02-11,"Huntington, New York, US",,,John Stember​ ​,1984-01-01,1988-01-01,3.0,3.0,2.0,0.0,,,,,,,,0,F,62.0,23.0,27.0,,,,4.0,,2,"model, actor/actress",0,1,1,0,0,40.8681539,-73.425676,,,
Peggy Ann Freeman,1945-08-31,"Detroit, Michigan, U.S.",1979-05-17,"Rome, Italy",Luigi Cazzaniga ​,1976-01-01,,1.0,0.0,1.0,0.0,,,,,,,,0,F,34.0,31.0,,,,,3.0,,2,"model, actor/actress",0,1,0,1,0,42.331427,-83.0457538,,,
Zoë Tamerlis,1962-02-09,"New York City, U.S.",1999-04-16,"Paris, France",Robert Lund ​,1986-01-01,,1.0,0.0,,0.0,,,,,,,,0,F,37.0,24.0,,,,,13.0,,3,"model, actor/actress, director",0,1,0,1,0,40.7127753,-74.0059728,,,
Kelly Lynch,1959-01-31,"Golden Valley, Minnesota, U.S.",,,Mitch Glazer ​,1992-01-01,,1.0,0.0,1.0,0.0,,"Key Biscayne, Florida, U.S.",,,2.0,1.0,,0,F,64.0,33.0,,,,,31.0,,2,"model, actor/actress",0,1,0,0,0,44.9917149,-93.3600034,25.693713,-80.1628248,2449.72052759998
Carole Ann Jones,1942-02-13,"New York City, U.S.",2019-09-03,"Los Angeles, California, U.S.",Michael Selsman​ ​,1960-01-01,1964-01-01,1.0,1.0,1.0,0.0,,,,,,,,0,F,77.0,18.0,22.0,,,,4.0,,2,"model, actor/actress",0,1,1,1,0,40.7127753,-74.0059728,,,
Nadine Caridi,1967-12-24,"London, England",,,Jordan Ross Belfort,1991-01-01,2005-01-01,1.0,1.0,2.0,0.0,1962-07-09,"New York City, U.S.",,,4.0,3.0,,0,F,56.0,24.0,38.0,61.0,29.0,43.0,14.0,5.0,1,model,0,1,1,0,0,51.5072178,-0.1275862,40.7127753,-74.0059728,5570.242530860794
Elizabeth Alice MacGraw,1939-04-01,"Pound Ridge, New York, U.S.",,,Robin Hoen​ ​,1960-01-01,1962-01-01,3.0,3.0,1.0,0.0,,,,,,,,0,F,84.0,21.0,23.0,,,,2.0,,2,"model, actor/actress",0,1,1,0,0,41.208442,-73.57482,,,
Noelie da Souza Machado,1929-12-25,"Shanghai, China",2016-12-18,"Stony Brook, New York, U.S.",Martin LaSalle​ ​,1957-01-01,1965-01-01,1.0,1.0,2.0,0.0,1930-01-01,,2018-10-17,,2.0,1.0,3.0,0,F,87.0,28.0,36.0,88.0,27.0,35.0,8.0,1.0,1,model,0,1,1,1,1,31.230416,121.473701,,,
Wendie Malick,1950-12-13,"Buffalo, New York, U.S.",,,Mitch Glazer​ ​,1982-01-01,1989-01-01,2.0,1.0,,0.0,,"Key Biscayne, Florida, U.S.",,,2.0,1.0,,1,F,73.0,32.0,39.0,,,,7.0,,2,"model, actor/actress",0,1,1,0,0,42.88644679999999,-78.8783689,25.693713,-80.1628248,1915.3173982236722
Patricia Mallory,1913-10-22,,1958-12-01,"Santa Monica, California, U.S.",William Cagney​ ​,1933-01-01,1946-01-01,2.0,1.0,2.0,0.0,1905-03-26,"New York City, U.S.",1988-01-03,"Newport Beach, California, U.S.",2.0,2.0,3.0,0,F,45.0,20.0,33.0,83.0,28.0,41.0,13.0,8.0,3,"model, actor/actress, dancer",0,1,1,1,1,,,40.7127753,-74.0059728,
Johanna Selhorst Maran,1978-05-08,"Menlo Park, California, United States",,,David Belle ​,2018-01-01,,1.0,0.0,2.0,0.0,,,,,,,,0,F,45.0,40.0,,,,,5.0,,2,"model, actor/actress",0,1,0,0,0,37.4529598,-122.1817252,,,
Eva Marcille Pigford,1984-10-30,"Los Angeles, California, U.S.",,,Michael Sterling​ ​,2018-01-01,2023-01-01,1.0,1.0,3.0,0.0,,,,,,,,0,F,39.0,34.0,39.0,,,,5.0,,1,model,0,1,1,0,0,34.0549076,-118.242643,,,
Audra Diane Mari,1994-01-08,"Fargo, North Dakota, U.S.",,,Joshua David Duhamel,2022-01-01,,1.0,0.0,,0.0,1972-11-14,"Minot, North Dakota, U.S.",,,2.0,1.0,1.0,0,F,29.0,28.0,,51.0,50.0,,1.0,22.0,1,model,1,1,0,0,0,46.8771863,-96.7898034,48.2329668,-101.2922906,369.91217055531763
Amber Brkich,1978-08-11,,,,Rob Mariano ​,2005-01-01,,1.0,0.0,4.0,0.0,1975-12-25,"Hyde Park, Boston, Massachusetts, U.S.",,,1.0,0.0,4.0,1,F,45.0,27.0,,48.0,30.0,,18.0,3.0,1,model,0,1,0,0,0,,,42.2556619,-71.1255855,
Bridget Marquardt,1973-09-25,"Tillamook, Oregon, U.S.",,,Chad Marquardt ​ ​,1997-01-01,2008-01-01,1.0,1.0,,0.0,,,,,,,,0,F,50.0,24.0,35.0,,,,11.0,,1,model,0,1,1,0,0,45.4562158,-123.8440137,,,
Geraldine McGee,1936-05-16,"Los Angeles, California, U.S.",1982-11-09,"Los Angeles, California, U.S.",Frank Lawrence Rosenthal,1969-01-01,1981-01-01,1.0,1.0,3.0,0.0,1929-06-12,"Chicago, Illinois, US",2008-10-13,"Miami Beach, Florida, US",1.0,1.0,2.0,0,F,46.0,33.0,45.0,79.0,40.0,52.0,12.0,7.0,1,model,0,1,1,1,1,34.0549076,-118.242643,41.8781136,-87.6297982,2803.7479217041505
Caitlin Maureen McHugh,1986-05-13,"Santa Monica, California, U.S.",,,Massimo Lusardi​ ​,2011-01-01,2014-01-01,2.0,1.0,1.0,0.0,,,,,,,,0,F,37.0,25.0,28.0,,,,3.0,,1,model,0,1,1,0,0,34.0194543,-118.4911912,,,
Kristen McMenamy,1964-12-13,"Easton, Pennsylvania, U.S.",,,Miles Aldridge ​,1997-01-01,2013-01-01,2.0,1.0,4.0,0.0,1964-09-29,"North London, England",,,1.0,1.0,3.0,1,F,59.0,33.0,49.0,59.0,33.0,49.0,16.0,0.0,2,"model, actor/actress",0,1,1,0,0,40.688432,-75.2207323,51.5072178,-0.1275862,5651.581610123715
Beverly Eileen Michaels,1927-12-29,"The Bronx, New York City, U.S.",2007-06-09,"Phoenix, Arizona, U.S.",Voldemar Vetluguin​ ​,1949-01-01,1952-01-01,2.0,1.0,2.0,1.0,,,,,,,,0,F,80.0,22.0,25.0,,,,3.0,,2,"model, actor/actress",0,1,1,1,0,40.8447819,-73.8648268,,,
Geneva Leona Mercadel,1946-01-01,"New Orleans, Louisiana",,,Albert Hubbard​ ​,1966-01-01,1968-01-01,3.0,3.0,2.0,0.0,,,,,,,,0,F,77.0,20.0,22.0,,,,2.0,,3,"model, actor/actress, dancer",0,1,1,0,0,29.95106579999999,-90.0715323,,,
Christa Miller,1964-05-28,,,,William Van Duzer Lawrence IV,1999-01-01,,1.0,0.0,3.0,0.0,1968-12-26,"Ridgefield, Connecticut, U.S.",,,1.0,0.0,3.0,0,F,59.0,35.0,,55.0,31.0,,24.0,4.0,2,"model, actor/actress",0,1,0,0,0,,,41.28406349999999,-73.4975412,
Mickey Koren,1928-07-14,"Manhattan, New York, U.S.",2018-09-20,"Perris, California, U.S.",Larry White​ ​,1949-01-01,1976-01-01,1.0,0.0,,1.0,,,,,,,,0,F,90.0,21.0,48.0,,,,27.0,,2,"model, actor/actress",0,1,0,1,0,40.7830603,-73.9712488,,,
Jayne Modean,,,,,David Alan Coulier,1990-01-01,1992-01-01,1.0,1.0,1.0,0.0,1959-09-21,"Detroit, Michigan, U.S.",,,2.0,1.0,1.0,1,F,,,,64.0,31.0,33.0,2.0,,2,"model, actor/actress",1,1,1,0,0,,,42.331427,-83.0457538,
Anna Gennadievna Monzikova,1984-08-25,"Vologda, Russian SFSR, Soviet Union",,,Josh Fritts ​,2010-01-01,,1.0,0.0,1.0,0.0,,,,,,,,0,F,39.0,26.0,,,,,13.0,,1,model,0,1,0,0,0,59.21806649999999,39.8978052,,,
Heather Elizabeth Morris,,"Thousand Oaks, California, United States",,,Taylor Hubbell ​,2015-01-01,,1.0,0.0,2.0,0.0,,,,,,,,0,F,,,,,,,8.0,,4,"model, actor/actress, dancer, singer",0,1,0,0,0,34.1705609,-118.8375937,,,
Bridget Moynahan,1971-04-28,"Binghamton, New York, U.S.",,,Andrew Frankel ​ ​,2015-01-01,,1.0,0.0,1.0,0.0,,,,,,,,0,F,52.0,44.0,,,,,8.0,,2,"model, actor/actress",0,1,0,0,0,42.09868669999999,-75.91797380000001,,,
Brooks Nader,1997-02-07,"Baton Rouge, Louisiana, U.S.",,,Billy Haire ​,2019-01-01,,1.0,0.0,,0.0,,,,,,,,0,F,26.0,22.0,,,,,4.0,,2,"model, actor/actress",0,1,0,0,0,30.4514677,-91.18714659999999,,,
Diane Neal,1976-11-17,"Alexandria, Virginia, U.S.",,,Marcus O. Fitzgerald​ ​,2005-01-01,2014-01-01,1.0,1.0,,0.0,,,,,,,,0,F,47.0,29.0,38.0,,,,9.0,,2,"model, actor/actress",0,1,1,0,0,38.8048355,-77.0469214,,,
Dixie Kay Nelson,1933-08-15,"Santa Fe, New Mexico, U.S.",2020-08-23,"Los Angeles, California, U.S:",John Russell Mann,1960-01-01,1973-01-01,2.0,2.0,2.0,0.0,1928-08-30,"Baltimore, Maryland, U.S.",2014-06-18,"Anderson, South Carolina, U.S.",2.0,2.0,2.0,0,F,87.0,27.0,40.0,86.0,32.0,45.0,13.0,5.0,2,"model, actor/actress",0,1,1,1,1,35.6869752,-105.937799,39.2903848,-76.6121893,2606.5769125536476
Florence Evelyn Nesbit,1884-12-25,"Natrona, Pennsylvania, U.S.",1967-01-17,"Santa Monica, California, U.S.",Harry Kendall Thaw ​ ​,1905-01-01,1915-01-01,2.0,2.0,1.0,0.0,1871-02-12,"Allegheny City,",1947-02-22,"Miami, Florida, U.S.",1.0,1.0,1.0,1,F,83.0,21.0,31.0,76.0,34.0,44.0,10.0,13.0,1,model,0,1,1,1,1,40.612558,-79.7233897,40.44062479999999,-79.9958864,29.93231351680301
Rachel Emily Nichols,,"Augusta, Maine, U.S.",,,Scott Stuber​ ​,2008-01-01,2009-01-01,2.0,1.0,,0.0,,"Granada Hills, Los Angeles, United States",,,2.0,1.0,3.0,1,F,,,,,,,1.0,,2,"model, actor/actress",0,1,1,0,0,44.3106241,-69.7794897,34.2793576,-118.5021527,4271.807213020029
Julia Nickson,,Singapore,,,David Richard Solberg,1987-01-01,1993-01-01,1.0,1.0,1.0,0.0,1943-08-28,"Chicago, Illinois, US",,,5.0,4.0,6.0,0,F,,,,80.0,44.0,50.0,6.0,,2,"model, actor/actress",1,1,1,0,0,1.352083,103.819836,41.8781136,-87.6297982,15071.861432078778
Chris Noel,1941-07-02,"West Palm Beach, Florida, U.S.",,,Ty Herrington​ ​,1969-01-01,,1.0,0.0,,1.0,,,,,,,,0,F,82.0,28.0,,,,,,,4,"musician, model, writers, actor/actress",0,1,0,0,0,26.7153424,-80.0533746,,,
Mariam Imogene Robertson,1902-12-18,"Louisville, Kentucky, U.S.",1948-10-31,"Los Angeles, California, U.S.",Wallace T. McCreary​ ​,1931-01-01,1932-01-01,1.0,1.0,,0.0,,,,,,,,0,F,46.0,29.0,30.0,,,,1.0,,3,"model, actor/actress, dancer",0,1,1,1,0,38.2526647,-85.7584557,,,
Amabel Ethelreid Normand,1893-11-09,"New York City, U.S.",1930-02-23,"Monrovia, California, U.S.",Louis Joseph Côté,1926-01-01,,1.0,0.0,,0.0,1884-02-22,"Waterville, Maine, U.S.",1934-05-31,"Beverly Hills, California, U.S.",3.0,2.0,,0,F,37.0,33.0,,50.0,42.0,,4.0,9.0,3,"model, actor/actress, director",1,1,0,1,1,40.7127753,-74.0059728,44.5520105,-69.6317121,556.869454176815
Marilyn Pauline Novak,1933-02-13,"Chicago, Illinois, U.S.",,,Richard Keith Johnson,1965-01-01,1966-01-01,2.0,1.0,,1.0,1927-07-30,"Upminster, Essex, England",2015-06-05,"Chelsea, London, England",4.0,3.0,4.0,0,F,90.0,32.0,33.0,88.0,38.0,39.0,1.0,6.0,2,"model, actor/actress",0,1,1,0,1,41.8781136,-87.6297982,51.57424469999999,0.4856781,6387.023246611488
Cheryl Moana Marie Nunes,1971-05-17,"Hillsboro, Oregon, U.S.",,,Antonio Sabàto Jr. ​ ​,2012-01-01,2016-01-01,1.0,1.0,1.0,0.0,1972-02-29,"Rome, Italy",,,2.0,2.0,3.0,0,F,52.0,41.0,45.0,51.0,40.0,44.0,4.0,1.0,2,"model, singer",0,1,1,0,0,45.5214068,-122.9913808,41.9027835,12.4963655,9339.471481468676
Armelia Carol Ohmart,1927-06-03,"Salt Lake City, Utah, U.S.",2002-01-01,"Fort Collins, Colorado, U.S.",Ken Grayson​ ​,1949-01-01,1951-01-01,3.0,2.0,,0.0,,,,,,,,0,F,75.0,22.0,24.0,,,,2.0,,2,"model, actor/actress",0,1,1,1,0,40.7607793,-111.8910474,,,
Melissa Pam Ordway,1983-03-31,"Atlanta, Georgia, U.S.",,,Justin Michael Gaston,2012-01-01,,1.0,0.0,2.0,0.0,1988-08-12,"Pineville, Louisiana, U.S.",,,1.0,0.0,2.0,1,F,40.0,29.0,,35.0,24.0,,11.0,5.0,2,"model, actor/actress",1,1,0,0,0,33.748752,-84.38768449999999,31.3224044,-92.4343035,800.8306721285846
Carré Otis,1968-09-28,"San Francisco, California, U.S.",,,Philip Andre Rourke Jr.,1992-01-01,1998-01-01,2.0,1.0,2.0,0.0,1952-09-16,"Schenectady, New York, U.S.",,,2.0,2.0,,0,F,55.0,24.0,30.0,71.0,40.0,46.0,6.0,16.0,2,"model, actor/actress",1,1,1,0,0,37.7749295,-122.4194155,42.8142432,-73.9395687,4092.662651916583
Natalie Ann Pack,1989-03-30,"Palos Verdes, California, U.S.",,,Aaron O'Connell ​,2018-01-01,,1.0,0.0,,0.0,,,,,,,,0,F,34.0,29.0,,,,,5.0,,1,model,0,1,0,0,0,33.7444613,-118.3870173,,,
Taylour Dominique Paige,1990-10-05,"Santa Monica, California, U.S.",,,"Gary ""Rivington Starchild"" Angulo​ ​",2022-01-01,,1.0,0.0,,0.0,,,,,,,,0,F,33.0,32.0,,,,,1.0,,2,"model, dancer",0,1,0,0,0,34.0194543,-118.4911912,,,
Irina Pantaeva,1967-10-31,"Ulan-Ude, Buryat ASSR, Russian SFSR, Soviet Union",,,Roland Levin​ ​,1994-01-01,2008-01-01,1.0,1.0,2.0,0.0,,,,,,,,0,F,56.0,27.0,41.0,,,,14.0,,2,"model, actor/actress",0,1,1,0,0,51.8335896,107.5840434,,,
Cecilia Ann Renee Parker,1932-10-28,"Long Island City, New York, U.S.",2003-05-03,"Montecito, California, U.S.",Charles Staton​ ​,1950-01-01,1953-01-01,3.0,2.0,4.0,0.0,,,,,,,,0,F,71.0,18.0,21.0,,,,3.0,,2,"model, actor/actress",0,1,1,1,0,40.744679,-73.9485424,,,
Jean Ward Patchett,1926-02-16,"Preston, Maryland, U.S.",2002-01-22,"La Quinta, California, U.S.",Louis Auer ​,1951-01-01,,1.0,0.0,2.0,0.0,,,,,,,,0,F,76.0,25.0,,,,,51.0,,1,model,0,1,0,1,0,38.7126151,-75.9099361,,,
Kristen Pazik,1978-08-11,"Minneapolis, Minnesota, U.S.",,,Andriy Shevchenko ​,2004-01-01,,1.0,0.0,4.0,0.0,,,,,1.0,0.0,4.0,1,F,45.0,26.0,,,,,19.0,,1,model,0,1,0,0,0,44.977753,-93.2650108,,,
Anna Maria Francesca Enriquez Perez de Tagle,1990-12-23,"San Francisco, California, U.S.",,,Scott Kline Jr. ​,2019-01-01,,1.0,0.0,1.0,0.0,,,,,,,,0,F,33.0,29.0,,,,,4.0,,2,"model, actor/actress",0,1,0,0,0,37.7749295,-122.4194155,,,
Kenda Rae Perez,1983-05-18,"Laguna Beach, California",,,Cub Swanson ​,2018-01-01,,1.0,0.0,,0.0,,,,,,,,0,F,40.0,35.0,,,,,5.0,,1,model,0,1,0,0,0,33.5427189,-117.7853568,,,
Millie Perkins,1936-05-12,"Passaic, New Jersey, U.S.",,,Robert Dean Stockwell,1960-01-01,1962-01-01,2.0,1.0,2.0,1.0,1936-03-05,"Los Angeles, California, U.S.",2021-11-07,"Whangarei, New Zealand",2.0,2.0,2.0,1,F,87.0,24.0,26.0,85.0,24.0,26.0,2.0,0.0,2,"model, actor/actress",1,1,1,0,1,40.8567662,-74.1284764,34.0549076,-118.242643,3924.250413047645
Elizabeth Rosiland Miller,1911-07-07,"Pensacola, Florida, U.S.",1996-09-16,"Montecito, California, U.S.",Harry Cohn​ ​,1941-01-01,,3.0,2.0,3.0,1.0,1891-07-23,"New York City, U.S.",1958-02-27,"Phoenix, Arizona, U.S.",2.0,1.0,,0,F,85.0,30.0,,67.0,50.0,,17.0,20.0,2,"model, actor/actress",0,1,1,1,1,30.42130899999999,-87.2169149,40.7127753,-74.0059728,1650.913111411929
Bijou Lilly Phillips,1980-04-01,"Greenwich, Connecticut, U.S.",,,Daniel Peter Masterson,2011-01-01,2023-01-01,1.0,1.0,1.0,0.0,1976-03-13,"Nassau County, New York, U.S.",,,1.0,1.0,1.0,1,F,43.0,31.0,43.0,47.0,35.0,47.0,12.0,4.0,3,"model, actor/actress, singer",1,1,1,0,0,41.0262417,-73.6281964,40.6546145,-73.55941279999999,41.726199082645344
Margaret P. L. Pierce,1931-10-24,"Detroit, Michigan, U.S.",2010-04-05,"Danbury, Connecticut, U.S.",Jerry Minskoff​ ​,1971-01-01,,1.0,0.0,,1.0,,,,,,,,0,F,79.0,40.0,,,,,,,2,"model, actor/actress",0,1,0,1,0,42.331427,-83.0457538,,,
Janelle Marie Pierzina,1980-01-10,"Grand Rapids, Minnesota, U.S.",,,Jess DeSanto ​,2010-01-01,,1.0,0.0,3.0,0.0,,,,,,,,0,F,43.0,30.0,,,,,13.0,,1,model,0,1,0,0,0,47.2371658,-93.53021419999999,,,
Sasha Pieterse,1996-02-17,"Johannesburg, Gauteng, South Africa",,,Hudson Sheaffer ​,2018-01-01,,1.0,0.0,1.0,0.0,,,,,,,,0,F,27.0,22.0,,,,,5.0,,3,"model, actor/actress, singer",0,1,0,0,0,-26.2041028,28.0473051,,,
Manohara Odelia Manz,1992-02-28,"Jakarta, Indonesia",,,Tengku Muhammad Fakhry Petra​ ​,2008-01-01,2009-01-01,1.0,1.0,,0.0,,,,,,,,0,F,31.0,16.0,17.0,,,,1.0,,1,model,0,1,1,0,0,-6.2087634,106.845599,,,
Larsa Marie Younan,,,,,Scottie Pippen​ ​,1997-01-01,2021-01-01,1.0,1.0,4.0,0.0,,,,,,,,0,F,,,,,,,24.0,,1,model,0,1,1,0,0,,,,,
Pavlína Pořízková,1965-04-09,"Prostějov, Czechoslovakia",,,Ric Ocasek​ ​,1989-01-01,,1.0,0.0,2.0,1.0,,,,,,,,0,F,58.0,24.0,,,,,,,4,"musician, model, writers, actor/actress",0,1,0,0,0,49.4724489,17.1067513,,,
Whitney Eve Port,1985-03-04,"Los Angeles, California, U.S.",,,Tim Rosenman ​,2015-01-01,,1.0,0.0,1.0,0.0,,,,,,,,0,F,38.0,30.0,,,,,8.0,,1,model,0,1,0,0,0,34.0549076,-118.242643,,,
Natalie Hershlag,1981-06-09,Jerusalem,,,Benjamin Millepied ​,2012-01-01,,1.0,0.0,2.0,0.0,1977-06-10,"Bordeaux, France",,,1.0,0.0,2.0,1,F,42.0,31.0,,46.0,35.0,,11.0,4.0,2,"model, actor/actress",0,1,0,0,0,31.768319,35.21371,44.837789,-0.57918,3408.8886293031064
Victoria Syde Praver,1987-06-04,"San Diego, California, U.S.",,,Mark Burnbaum ​,2021-01-01,,1.0,0.0,2.0,0.0,,,,,,,,0,F,36.0,34.0,,,,,2.0,,1,model,0,1,0,0,0,32.715738,-117.1610838,,,
Jaime Elizabeth Pressly,1977-07-30,"Kinston, North Carolina, U.S.",,,Simran Singh​ ​,2009-01-01,2011-01-01,1.0,1.0,3.0,0.0,,,,,,,,0,F,46.0,32.0,34.0,,,,2.0,,2,"model, actor/actress",0,1,1,0,0,35.2626635,-77.5816353,,,
Kelly Kamalelehua Smith,1962-10-13,"Honolulu, Hawaii, U.S.",2020-07-12,"Clearwater, Florida, U.S.",Kevin Gaede,1985-01-01,1987-01-01,2.0,1.0,3.0,0.0,1959-05-26,"Wisconsin, U.S.",,,2.0,1.0,1.0,1,F,58.0,23.0,25.0,64.0,26.0,28.0,2.0,3.0,2,"model, actor/actress",1,1,1,1,0,21.3098845,-157.8581401,43.7844397,-88.7878678,6732.402667961284
Yvette Prieto,1978-03-26,Cuba,,,Michael Jordan​ ​,2013-01-01,,1.0,0.0,2.0,0.0,,,,,,,,0,F,45.0,35.0,,,,,10.0,,1,model,0,1,0,0,0,21.521757,-77.781167,,,
Gladys Pulitzer,1928-05-31,"New York City, U.S.",2011-10-28,"New York City, U.S.",David Frost Bartlett​ ​,1949-01-01,,2.0,1.0,4.0,1.0,,,,,,,,0,F,83.0,21.0,,,,,,,1,model,0,1,1,1,0,40.7127753,-74.0059728,,,
Jane Elizabeth Randall,1990-08-28,"Baltimore, Maryland",,,Dylan Trotzuk ​,2017-01-01,,1.0,0.0,,0.0,,,,,,,,0,F,33.0,27.0,,,,,6.0,,1,model,0,1,0,0,0,39.2903848,-76.6121893,,,
Melissa Ivy Rauch,1980-06-23,"Marlboro Township, New Jersey, U.S.",,,Winston Beigel ​,2007-01-01,,1.0,0.0,2.0,0.0,,,,,,,,0,F,43.0,27.0,,,,,16.0,,2,"model, actor/actress",0,1,0,0,0,40.3380949,-74.26872910000002,,,
Daphne Etta Maxwell,1948-07-13,"New York City, U.S.",,,Robert Tubbs​ ​,1968-01-01,1979-01-01,2.0,1.0,1.0,0.0,,,,,,,,0,F,75.0,20.0,31.0,,,,11.0,,2,"model, actor/actress",0,1,1,0,0,40.7127753,-74.0059728,,,
Carol Elizabeth Reiley,1982-08-30,"Flint, Michigan, U.S.",,,Andrew Yan-Tak Ng,2014-01-01,,1.0,0.0,,0.0,1976-04-18,United Kingdom,,,1.0,0.0,2.0,1,F,41.0,32.0,,47.0,38.0,,9.0,6.0,1,model,0,1,0,0,0,43.0125274,-83.6874562,55.378051,-3.435973,5651.369028645095
Casey Beau Reinhardt,1986-07-01,"Beverly Hills, California, U.S.",,,Sean Brown ​,2016-01-01,,1.0,0.0,3.0,0.0,,,,,,,,0,F,37.0,30.0,,,,,7.0,,1,model,0,1,0,0,0,34.0736204,-118.4003563,,,
Hilary Hollis Rhoda,1987-04-06,"Chevy Chase, Maryland, United States",,,Sean Avery​ ​,2015-01-01,2022-01-01,1.0,1.0,1.0,0.0,,,,,,,,0,F,36.0,28.0,35.0,,,,7.0,,1,model,0,1,1,0,0,38.9949153,-77.0772052,,,
Brandi Alexis Reed,1983-06-23,"Canton, Michigan, U.S.",,,Cody Garrett Runnels,2013-01-01,,1.0,0.0,1.0,0.0,1985-06-30,"Marietta, Georgia, U.S.",,,1.0,0.0,1.0,1,F,40.0,30.0,,38.0,28.0,,10.0,2.0,1,model,0,1,0,0,0,44.3148443,-85.60236429999999,33.95260200000001,-84.5499327,1155.7697281434641
Denise Lee Richards,1971-02-17,"Downers Grove, Illinois, U.S.",,,Carlos Irwin Estévez,2002-01-01,2006-01-01,2.0,1.0,3.0,0.0,1965-09-03,"New York City, U.S.",,,3.0,3.0,5.0,0,F,52.0,31.0,35.0,58.0,37.0,41.0,4.0,6.0,4,"musician, model, writers, actor/actress",1,1,1,0,0,41.8089191,-88.01117459999999,40.7127753,-74.0059728,1175.6559992389741
Margaret Mary Rizer,1978-01-09,"New York City, U.S.",,,Alex Mehran ​,2010-01-01,,1.0,0.0,4.0,0.0,,,,,,,,0,F,45.0,32.0,,,,,13.0,,1,model,0,1,0,0,0,40.7127753,-74.0059728,,,
Julia Fiona Roberts,1967-10-28,"Smyrna, Georgia, U.S.",,,Lyle Lovett​ ​,1993-01-01,1995-01-01,2.0,1.0,3.0,0.0,,,,,,,,0,F,56.0,26.0,28.0,,,,2.0,,2,"model, actor/actress",0,1,1,0,0,33.8839926,-84.51437609999999,,,
Victoria Leigh Blum,1949-10-15,"New York City, New York, U.S.",2021-01-04,"Los Angeles, California, U.S.",Barry Roberts​ ​,1974-01-01,,1.0,0.0,,1.0,,,,,,,,0,F,72.0,25.0,,,,,,,2,"model, actor/actress",0,1,0,1,0,40.7127753,-74.0059728,,,
Sarah Christine Roemer,1984-08-28,"San Diego, California, U.S.",,,Chad Michael Murray ​,2015-01-01,,1.0,0.0,3.0,0.0,1981-08-24,"Buffalo, New York, U.S.",,,2.0,1.0,3.0,0,F,39.0,31.0,,42.0,34.0,,8.0,3.0,2,"model, actor/actress",0,1,0,0,0,32.715738,-117.1610838,42.88644679999999,-78.8783689,3513.814156867674
Kelly Rohrbach,1990-01-21,"New York City, U.S.",,,Steuart Walton ​,2019-01-01,,1.0,0.0,1.0,0.0,1981-01-01,"Bentonville, Arkansas, U.S.",,,1.0,0.0,1.0,1,F,33.0,29.0,,42.0,38.0,,4.0,9.0,1,model,0,1,0,0,0,40.7127753,-74.0059728,36.3723561,-94.21021410000002,1817.6385673409522
Rebecca Alie Romijn,1972-11-06,"Berkeley, California, U.S.",,,John Phillip Stamos,1998-01-01,2005-01-01,2.0,1.0,2.0,0.0,1963-08-19,"Cypress, California, U.S.",,,2.0,1.0,1.0,1,F,51.0,26.0,33.0,60.0,35.0,42.0,7.0,9.0,2,"model, actor/actress",1,1,1,0,0,37.8715226,-122.273042,33.8169366,-118.0368507,590.6629836017344
Annette Roque,1966-01-01,"Leeuwarden, Netherlands",,,Matthew Todd Lauer,1998-01-01,2019-01-01,1.0,1.0,3.0,0.0,1957-12-30,"New York City, U.S.",,,2.0,2.0,3.0,0,F,57.0,32.0,53.0,66.0,41.0,62.0,21.0,9.0,1,model,1,1,1,0,0,53.2012334,5.7999133,40.7127753,-74.0059728,5886.611016774609
Elettra-Ingrid Wiedemann,1983-07-26,"New York City, U.S.",,,James Marshall​ ​,2012-01-01,2015-01-01,2.0,1.0,2.0,0.0,,,,,,,,0,F,40.0,29.0,32.0,,,,3.0,,1,model,0,1,1,0,0,40.7127753,-74.0059728,,,
Missy Margera,1979-09-28,,,,Missy Rothstein​ ​,2007-01-01,2012-01-01,2.0,2.0,1.0,0.0,,,,,,,,0,F,44.0,28.0,33.0,,,,5.0,,2,"model, director",0,1,1,0,0,,,,,
Missy Rothstein,1979-09-28,,,,Missy Rothstein​ ​,2007-01-01,2012-01-01,2.0,2.0,1.0,0.0,,,,,,,,0,F,44.0,28.0,33.0,,,,5.0,,2,"model, director",0,1,1,0,0,,,,,
Roxanne Giles,1931-01-10,"Detroit, Michigan, U.S.",1989-02-22,"London, England",Aaron Chwatt,1947-01-01,1949-01-01,4.0,3.0,1.0,0.0,1919-02-05,"New York City, U.S.",2006-07-13,"Los Angeles, California, U.S.",3.0,2.0,2.0,1,F,58.0,16.0,18.0,87.0,28.0,30.0,2.0,12.0,2,"model, actor/actress",0,1,1,1,1,42.331427,-83.0457538,40.7127753,-74.0059728,773.3844254168638
Ernestine Jane Geraldine Russell,1921-06-21,"Bemidji, Minnesota, U.S.",2011-02-28,"Santa Maria, California, U.S.",Bob Waterfield​ ​,1943-01-01,1968-01-01,3.0,1.0,3.0,2.0,,,,,,,,0,F,90.0,22.0,47.0,,,,25.0,,2,"model, actor/actress",0,1,1,1,0,47.471573,-94.8826861,,,
Catherine Rosalind Russell,1907-06-04,"Waterbury, Connecticut, U.S.",1976-11-28,"Beverly Hills, California, U.S.",Frederick Brisson ​,1941-01-01,,1.0,0.0,1.0,0.0,,,,,,,,0,F,69.0,34.0,,,,,35.0,,3,"model, actor/actress, comedians",0,1,0,1,0,41.5581525,-73.0514965,,,
Rene Marie Russo,1954-02-17,"Burbank, California, U.S.",,,Daniel Christopher Gilroy,1992-01-01,,1.0,0.0,1.0,0.0,1959-06-24,"Santa Monica, California, U.S.",,,1.0,0.0,1.0,1,F,69.0,38.0,,64.0,33.0,,31.0,5.0,2,"model, actor/actress",0,1,0,0,0,34.1808392,-118.3089661,34.0194543,-118.4911912,24.567229157323297
Nia Temple Sanchez,1990-02-15,"Sacramento, California, U.S.",,,Daniel Paul Booko,2015-01-01,,1.0,0.0,3.0,0.0,1983-10-17,"Three Rivers, Michigan, U.S.",,,1.0,0.0,3.0,1,F,33.0,25.0,,40.0,32.0,,8.0,7.0,1,model,1,1,0,0,0,38.5815719,-121.4943996,41.9439368,-85.632493,3043.4209450673457
Adam Richard Sandler,1966-09-09,"New York City, U.S.",,,Jackie Titone ​,2003-01-01,,1.0,0.0,2.0,0.0,,,,,,,,0,F,57.0,37.0,,,,,20.0,,3,"model, actor/actress, comedians",0,1,0,0,0,40.7127753,-74.0059728,,,
Catya Sassoon,1968-09-03,"New York City, U.S.",2002-01-01,"Hollywood, Los Angeles, California, U.S.",Luca Scalisi​ ​,1984-01-01,1985-01-01,1.0,1.0,3.0,0.0,,,,,,,,0,F,34.0,16.0,17.0,,,,1.0,,2,"model, actor/actress",0,1,1,1,0,40.7127753,-74.0059728,,,
Sherri Michelle Saum,1974-10-01,"Dayton, Ohio, U.S.",,,Kamar de los Reyes ​,2007-01-01,,1.0,0.0,2.0,0.0,1967-11-08,"San Juan, Puerto Rico",,,1.0,0.0,3.0,1,F,49.0,33.0,,56.0,40.0,,16.0,7.0,2,"model, actor/actress",0,1,0,0,0,39.7589478,-84.1916069,18.4670588,-66.1184593,2934.754945317958
Stassi Schroeder,1988-06-24,"New Orleans, Louisiana, U.S.",,,Beau Clark ​,2020-01-01,,1.0,0.0,2.0,0.0,,,,,,,,0,F,35.0,32.0,,,,,3.0,,2,"journalist, model",0,1,0,0,0,29.95106579999999,-90.0715323,,,
Izabela Dorota Skorupko,1970-06-04,"Białystok, Poland",,,Mariusz Czerkawski​ ​,1996-01-01,1998-01-01,3.0,2.0,2.0,0.0,,,,,,,,0,F,53.0,26.0,28.0,,,,2.0,,2,"model, actor/actress",0,1,1,0,0,53.13248859999999,23.1688403,,,
Ashley Scott,1977-07-13,"Metairie, Louisiana, U.S.",,,Anthony Rhulen​ ​,2004-01-01,2008-01-01,2.0,2.0,2.0,0.0,,,,,,,,0,F,46.0,27.0,31.0,,,,4.0,,2,"model, actor/actress",0,1,1,0,0,29.9840922,-90.1528519,,,
Laura Bambrough,1964-04-28,"Salt Lake City, Utah, U.S.",2014-03-17,"New York City, U.S.",Andrew Ladsky​ ​,1990-01-01,1993-01-01,2.0,2.0,,0.0,,,,,,,,0,F,50.0,26.0,29.0,,,,3.0,,1,model,0,1,1,1,0,40.7607793,-111.8910474,,,
Concetta Sellecchia,1955-05-25,"New York City, U.S.",,,Gil Gerard​ ​,1979-01-01,1987-01-01,2.0,1.0,2.0,0.0,1943-01-23,"Little Rock, Arkansas, U.S.",,,1.0,,1.0,0,F,68.0,24.0,32.0,80.0,36.0,44.0,8.0,12.0,2,"model, actor/actress",0,1,1,0,0,40.7127753,-74.0059728,34.7444618,-92.2880157,1735.1534485338145
Joan Marie Severance,1958-12-23,"Houston, Texas, U.S",,,Eric Milan​ ​,1977-01-01,1984-01-01,1.0,1.0,,0.0,,,,,,,,0,F,65.0,19.0,26.0,,,,7.0,,2,"model, actor/actress",0,1,1,0,0,29.7604267,-95.3698028,,,
Chloe Stevens Sevigny,1974-11-18,"Springfield, Massachusetts, U.S.",,,Siniša Mačković ​,2020-01-01,,1.0,0.0,1.0,0.0,,,,,,,,0,F,49.0,46.0,,,,,3.0,,2,"model, actor/actress",0,1,0,0,0,42.1014831,-72.589811,,,
Nancy Sexton,1969-07-08,"Ragersville, Ohio",,,Tim Sexton  ​,2010-01-01,,1.0,0.0,,0.0,1949-07-17,"Buffalo, NY",,,,,,0,F,54.0,41.0,,74.0,61.0,,13.0,20.0,1,model,0,1,0,0,0,40.4525657,-81.6262347,42.88644679999999,-78.8783689,353.98757047017284
Stephanie Seymour,1968-07-23,"San Diego, California, U.S.",,,Tommy Andrews​ ​,1989-01-01,1990-01-01,2.0,1.0,4.0,0.0,,,,,,,,0,F,55.0,21.0,22.0,,,,1.0,,2,"model, actor/actress",0,1,1,0,0,32.715738,-117.1610838,,,
Aahoo Jahansouzshahi,1980-01-10,"Euless, Texas, U.S.",,,Steven Michael Robert Howey,2009-01-01,2021-01-01,1.0,1.0,3.0,0.0,1977-07-12,"San Antonio, Texas, U.S.",,,1.0,1.0,3.0,0,F,43.0,29.0,41.0,46.0,32.0,44.0,12.0,3.0,2,"model, actor/actress",1,1,1,0,0,32.8370727,-97.08195409999999,29.4251905,-98.4945922,402.49149335891013
Karen Kay Sharpe,1934-09-20,"San Antonio, Texas, U.S.",,,Charles Stevens Marshall​ ​,1957-01-01,1962-01-01,2.0,1.0,2.0,1.0,,,,,,,,0,F,89.0,23.0,28.0,,,,5.0,,2,"model, actor/actress",0,1,1,0,0,29.4251905,-98.4945922,,,
Scheana Marie Jancan,1985-05-07,"West Covina, California, U.S.",,,Michael Shay​ ​,2014-01-01,2017-01-01,2.0,1.0,1.0,0.0,,,,,,,,0,F,38.0,29.0,32.0,,,,3.0,,1,model,0,1,1,0,0,34.0686208,-117.9389526,,,
Edith Norma Shearer,1902-08-11,"Montreal, Quebec, Canada",1983-06-12,"Los Angeles, California, US",Irving Grant Thalberg,1927-01-01,,2.0,0.0,2.0,1.0,1899-05-30,"Brooklyn, New York, U.S.",1936-09-14,"Santa Monica, California, U.S.",1.0,0.0,4.0,1,F,81.0,25.0,,37.0,28.0,,9.0,3.0,2,"model, actor/actress",0,1,0,1,1,45.5018869,-73.56739189999999,40.6781784,-73.9441579,537.2419009263203
Cybill Lynne Shepherd,1950-02-18,"Memphis, Tennessee, U.S.",,,David Ford​ ​,1978-01-01,1982-01-01,2.0,2.0,3.0,0.0,,,,,,,,0,F,73.0,28.0,32.0,,,,4.0,,2,"model, actor/actress",0,1,1,0,0,35.1495343,-90.0489801,,,
Robin Lyn Sherwood,1952-01-24,"Miami Beach, Florida, U.S.",,,Jeff Begun​ ​,1976-01-01,1979-01-01,1.0,1.0,1.0,0.0,,,,,,,,0,F,71.0,24.0,27.0,,,,3.0,,2,"model, actor/actress",0,1,1,0,0,25.790654,-80.1300455,,,
Brooke Christa Shields,1965-05-31,"New York City, New York, U.S.",,,Andre Agassi​ ​,1997-01-01,1999-01-01,2.0,1.0,2.0,0.0,,,,,,,,0,F,58.0,32.0,34.0,,,,2.0,,4,"musician, model, writers, actor/actress",0,1,1,0,0,40.7127753,-74.0059728,,,
Jenny Shimizu,1967-06-16,"San Jose, California, U.S.",,,Michelle Harper ​,2014-01-01,,1.0,0.0,,0.0,,,,,,,,0,F,56.0,47.0,,,,,9.0,,1,model,0,1,0,0,0,37.33874,-121.8852525,,,
Jolan Kovacs,1917-12-01,"Cleveland, Ohio, U.S.",2011-02-12,"Santa Monica, California, U.S.",Jerry Siegel​ ​,1948-01-01,,1.0,0.0,1.0,1.0,,,,,,,,0,F,94.0,31.0,,,,,,,1,model,0,1,0,1,0,41.49932,-81.6943605,,,
Alicia Silverstone,1976-10-04,"San Francisco, California, U.S.",,,Christopher Jarecki​ ​,2005-01-01,2018-01-01,1.0,1.0,1.0,0.0,,,,,,,,0,F,47.0,29.0,42.0,,,,13.0,,4,"musician, model, writers, actor/actress",0,1,1,0,0,37.7749295,-122.4194155,,,
Kimora Lee Perkins,1975-05-04,"St. Louis, Missouri, U.S.",,,Russell Wendell Simmons,1998-01-01,2009-01-01,2.0,1.0,5.0,0.0,1957-10-04,"Queens, New York City, U.S.",,,1.0,1.0,2.0,1,F,48.0,23.0,34.0,66.0,41.0,52.0,11.0,18.0,2,"model, actor/actress",0,1,1,0,0,38.6270025,-90.19940419999999,40.7282239,-73.7948516,1421.0534346006502
Amy Lysle Smart,1976-03-26,"Los Angeles, California, U.S.",,,Carter Nicholas Oosterhouse,2011-01-01,,1.0,0.0,1.0,0.0,1976-09-19,"Traverse City, Michigan, U.S.",,,1.0,0.0,1.0,1,F,47.0,35.0,,47.0,35.0,,12.0,0.0,2,"model, actor/actress",0,1,0,0,0,34.0549076,-118.242643,44.7630567,-85.62063169999999,3019.343709931881
Vickie Lynn Hogan,1967-11-28,"Houston, Texas, U.S.",2007-02-08,"Hollywood, Florida, U.S.",Billy Smith​ ​,1985-01-01,1993-01-01,2.0,1.0,,1.0,,,,,,,,0,F,40.0,18.0,26.0,,,,8.0,,2,"model, actor/actress",0,1,1,1,0,29.7604267,-95.3698028,,,
Jacquelyn Ellen Smith,1945-10-26,"Houston, Texas, U.S.",,,Jon Roger Davis,1968-01-01,1975-01-01,4.0,3.0,2.0,0.0,1939-04-05,"Louisville, Kentucky",,,1.0,,1.0,0,F,78.0,23.0,30.0,84.0,29.0,36.0,7.0,6.0,2,"model, actor/actress",0,1,1,0,0,29.7604267,-95.3698028,38.2526647,-85.7584557,1293.2980376820146
Jacoba Francisca Maria Smulders,1982-04-03,"Vancouver, British Columbia, Canada",,,Taran Hourie Killam,2012-01-01,,1.0,0.0,2.0,0.0,1982-04-01,"Culver City, California, U.S.",,,1.0,0.0,2.0,0,F,41.0,30.0,,41.0,30.0,,11.0,0.0,2,"model, actor/actress",1,1,0,0,0,49.2827291,-123.1207375,34.0211224,-118.3964665,1740.9179130733082
Miriam Soto,1967-03-27,"New York City, U.S.",,,Costas Theodosopoulos,1997-01-01,2000-01-01,2.0,1.0,2.0,0.0,1965-09-03,"Melbourne, Victoria, Australia",,,1.0,1.0,,0,F,56.0,30.0,33.0,58.0,32.0,35.0,3.0,2.0,2,"model, actor/actress",1,1,1,0,0,40.7127753,-74.0059728,-37.8136276,144.9630576,16672.228301437746
Leone Sousa,1909-01-01,"Lake Elsinore, California, US",2001-01-09,,George Fleming Houston,1933-01-01,1940-01-01,2.0,1.0,,1.0,1896-01-11,"Hampton, New Jersey",1944-11-12,"Los Angeles, California",2.0,1.0,,1,F,92.0,24.0,31.0,48.0,37.0,44.0,7.0,13.0,2,"model, actor/actress",1,1,1,1,1,33.6680772,-117.3272615,40.7070446,-74.9560032,3796.206270262128
Carrie Southworth,,,,,Coddy Johnson ​,2005-01-01,,1.0,0.0,,0.0,,,,,,,,0,F,,,,,,,18.0,,2,"model, actor/actress",0,1,0,0,0,,,,,
Jean Elizabeth Spangler,1923-09-02,"Seattle, Washington, U.S.",,,Dexter Benner​ ​,1942-01-01,1946-01-01,1.0,1.0,1.0,0.0,,,,,,,,0,F,100.0,19.0,23.0,,,,4.0,,3,"model, actor/actress, dancer",0,1,1,0,0,47.6061389,-122.3328481,,,
Rachel Specter,,"Tampa, Florida, U.S.",,,Dan Levy ​,2010-01-01,,1.0,0.0,3.0,0.0,,,,,,,,0,F,,,,,,,13.0,,2,"model, actor/actress",0,1,0,0,0,27.9516896,-82.45875269999999,,,
Susanna Gail Carney,1945-10-13,"Lynn, Massachusetts, U.S.",,,Gordon Barton McLendon,1973-01-01,1975-01-01,2.0,2.0,,0.0,1921-06-08,"Paris, Texas, U.S.",1986-09-14,"Lake Dallas, Texas, U.S.",2.0,2.0,,0,F,78.0,28.0,30.0,65.0,52.0,54.0,2.0,24.0,1,model,0,1,1,0,1,42.46676300000001,-70.9494938,33.6609389,-95.55551299999999,2354.962888293129
Ruby Catherine Stevens,1907-07-16,"Brooklyn, New York, U.S.",1990-01-20,"Santa Monica, California, U.S.",Francis Anthony Donner,1928-01-01,1935-01-01,2.0,2.0,1.0,0.0,1891-11-17,"San Francisco, California, U.S.",1961-09-25,"Santa Monica, California, U.S.",2.0,2.0,1.0,0,F,83.0,21.0,28.0,70.0,37.0,44.0,7.0,16.0,2,"model, actor/actress",0,1,1,1,1,40.6781784,-73.9441579,37.7749295,-122.4194155,4134.972639976981
Kathleen Norris Stark,1956-04-26,"New York City, U.S.",,,Tim Jeffries​ ​,1984-01-01,1990-01-01,1.0,1.0,1.0,0.0,,,,,,,,0,F,67.0,28.0,34.0,,,,6.0,,3,"model, actor/actress, director",0,1,1,0,0,40.7127753,-74.0059728,,,
Abby Stein,1991-10-01,"New York City, U.S.",,,Fraidy Horowitz​ ​,2010-01-01,2013-01-01,1.0,1.0,1.0,0.0,,,,,,,,0,F,32.0,19.0,22.0,,,,3.0,,3,"musician, model, writers",0,1,1,0,0,40.7127753,-74.0059728,,,
Beth Ostrosky,1972-07-15,"Pittsburgh, Pennsylvania, U.S.",,,Howard Allan Stern,2008-01-01,,1.0,0.0,,0.0,1954-01-12,"New York City, U.S.",,,2.0,1.0,3.0,0,F,51.0,36.0,,69.0,54.0,,15.0,18.0,2,"model, actor/actress",1,1,0,0,0,40.44062479999999,-79.9958864,40.7127753,-74.0059728,506.69279547740985
Crystle Danae Stewart,1981-09-20,"Houston, Texas, U.S.",,,Max Sebrechts ​,2014-01-01,,1.0,0.0,2.0,0.0,,,,,,,,0,F,42.0,33.0,,,,,9.0,,1,model,0,1,0,0,0,29.7604267,-95.3698028,,,
Martha Helen Kostyra,1941-08-03,"Jersey City, New Jersey, U.S.",,,Andrew Stewart​ ​,1961-01-01,1990-01-01,1.0,1.0,1.0,0.0,,,,,,,,0,F,82.0,20.0,49.0,,,,29.0,,3,"musician, model, writers",0,1,1,0,0,40.7177545,-74.0431435,,,
Sharon Vonne Stone,1958-03-10,"Meadville, Pennsylvania, U.S.",,,Michael Greenburg​ ​,1984-01-01,1990-01-01,2.0,2.0,3.0,0.0,,,,,,,,0,F,65.0,26.0,32.0,,,,6.0,,2,"model, actor/actress",0,1,1,0,0,41.6414438,-80.15144839999999,,,
Amanda Grace Sudano,1982-08-11,"Los Angeles, California, U.S.",,,Abner Ramirez ​,2009-01-01,,1.0,0.0,3.0,0.0,,,,,,,,0,F,41.0,27.0,,,,,14.0,,2,"model, singer",0,1,0,0,0,34.0549076,-118.242643,,,
Brittany Sullivan,1988-09-09,"Lake Forest, Illinois, U.S.",,,Sam Alvey ​,2013-01-01,,1.0,0.0,5.0,0.0,,,,,,,,0,F,35.0,25.0,,,,,10.0,,1,model,0,1,0,0,0,42.2586342,-87.840625,,,
Anita Sokol,1930-08-08,"New York City, U.S.",,,Donald Walter Guadagno,1954-01-01,1958-01-01,1.0,1.0,1.0,0.0,1926-11-13,"Los Angeles, California, U.S.",2017-04-24,"Los Angeles, California, U.S.",4.0,3.0,2.0,0,F,93.0,24.0,28.0,91.0,28.0,32.0,4.0,4.0,2,"model, actor/actress",0,1,1,0,1,40.7127753,-74.0059728,34.0549076,-118.242643,3935.536977390735
Sharon Marie Tate,1943-01-24,"Dallas, Texas, U.S.",1969-08-09,"Los Angeles, California, U.S.",Raymond Roman Thierry Liebling,1968-01-01,,1.0,0.0,1.0,0.0,1933-08-18,"Paris, French Third Republic",,,3.0,1.0,2.0,0,F,26.0,25.0,,90.0,35.0,,1.0,10.0,2,"model, actor/actress",1,1,0,1,0,32.7766642,-96.79698789999999,48.856614,2.3522219,7934.183940009717
Christine Diane Teigen,1985-11-30,"Delta, Utah, U.S.",,,John Roger Stephens,2013-01-01,,1.0,0.0,4.0,0.0,1978-12-28,"Springfield, Ohio, U.S.",,,1.0,0.0,4.0,0,F,38.0,28.0,,45.0,35.0,,10.0,7.0,3,"musician, model, writers",0,1,0,0,0,39.3521777,-112.57717,39.9242266,-83.8088171,2453.547722500867
Pamela Tiffin Wonso,1942-10-13,"Oklahoma City, Oklahoma, U.S.",2020-12-02,"Manhattan, New York City, U.S.",Clay Schuette Felker,1962-01-01,1969-01-01,2.0,1.0,2.0,0.0,1925-10-02,"Webster Groves, Missouri, United States",2008-07-01,"New York City, New York, United States",2.0,1.0,,0,F,78.0,20.0,27.0,83.0,37.0,44.0,7.0,17.0,2,"model, actor/actress",1,1,1,1,1,35.4675602,-97.5164276,38.5925524,-90.3573389,723.9823786353304
Christina June Brown,1922-03-24,"Memphis, Tennessee, U.S.",1982-02-18,"Everett, Washington, U.S.",Thomas H. Carver​ ​,1949-01-01,1956-01-01,1.0,1.0,2.0,0.0,,,,,,,,0,F,60.0,27.0,34.0,,,,7.0,,2,"model, actor/actress",0,1,1,1,0,35.1495343,-90.0489801,,,
Jasmine Tookes,1991-02-01,"Huntington Beach, California, U.S.",,,Juan David Borrero ​,2021-01-01,,1.0,0.0,1.0,0.0,,,,,,,,0,F,32.0,30.0,,,,,2.0,,1,model,0,1,0,0,0,33.6594835,-117.9988026,,,
Christy Nicole Turlington,1969-01-02,"Walnut Creek, California, U.S.",,,Edward Fitzgerald Burns,2003-01-01,,1.0,0.0,2.0,0.0,1968-01-29,"New York City, U.S.",,,1.0,0.0,2.0,1,F,54.0,34.0,,55.0,35.0,,20.0,1.0,1,model,1,1,0,0,0,37.9100783,-122.0651819,40.7127753,-74.0059728,4094.722031771614
Liv Rundgren,1977-07-01,"New York City, New York, U.S.",,,Royston Langdon​ ​,2003-01-01,2008-01-01,1.0,1.0,3.0,0.0,,,,,,,,0,F,46.0,26.0,31.0,,,,5.0,,2,"model, actor/actress",0,1,1,0,0,40.7127753,-74.0059728,,,
Gabrielle Monique Union,1972-10-29,"Omaha, Nebraska, U.S.",,,Chris Howard​ ​,2001-01-01,2006-01-01,2.0,1.0,1.0,0.0,,,,,,,,0,F,51.0,29.0,34.0,,,,5.0,,2,"model, actor/actress",0,1,1,0,0,41.2565369,-95.9345034,,,
Lauren Caitlin Upton,1989-03-27,"Lexington, South Carolina, U.S.",,,Charlie McNeil​ ​,2016-01-01,2019-01-01,1.0,1.0,2.0,0.0,,,,,,,,0,F,34.0,27.0,30.0,,,,3.0,,1,model,0,1,1,0,0,33.9815369,-81.2362107,,,
Cato van Ee,1990-01-01,"South Carolina, U.S.",,,Sander van der Does ​,2022-01-01,,1.0,0.0,1.0,0.0,,,,,,,,0,F,33.0,32.0,,,,,1.0,,1,model,0,1,0,0,0,33.836081,-81.1637245,,,
Casandra Elizabeth Ventura,1986-08-26,"New London, Connecticut, U.S.",,,Alex Fine ​,2019-01-01,,1.0,0.0,2.0,0.0,,,,,,,,0,F,37.0,33.0,,,,,4.0,,3,"model, actor/actress, singer",0,1,0,0,0,41.3556539,-72.0995209,,,
Sofía Margarita Vergara Vergara,1972-07-10,"Barranquilla, Atlántico, Colombia",,,Joe Gonzalez​ ​,1991-01-01,1993-01-01,2.0,2.0,1.0,0.0,,,,,,,,0,F,51.0,19.0,21.0,,,,2.0,,2,"model, actor/actress",0,1,1,0,0,11.0041072,-74.80698129999999,,,
Katherine von Drachenberg,1982-03-08,"Montemorelos, Mexico",,,Oliver Peck​ ​,2003-01-01,2007-01-01,2.0,1.0,1.0,0.0,1971-07-29,"Dallas, Texas, U.S.",,,1.0,1.0,,1,F,41.0,21.0,25.0,52.0,32.0,36.0,4.0,11.0,1,model,0,1,1,0,0,25.1889176,-99.8363028,32.7766642,-96.79698789999999,893.8735224105977
Birgitte Caroline von Schlebrügge,1941-01-08,"Mexico City, Mexico",,,Timothy Francis Leary,1964-01-01,1965-01-01,2.0,1.0,4.0,0.0,1920-10-22,"Springfield, Massachusetts, U.S.",1996-05-31,"Beverly Hills, California, U.S.",5.0,4.0,3.0,0,F,82.0,23.0,24.0,76.0,44.0,45.0,1.0,21.0,1,model,0,1,1,0,1,19.4326077,-99.133208,42.1014831,-72.589811,3546.8083059069545
Veronica Webb,1965-02-25,"Detroit, Michigan, U.S.",,,George Robb​ ​,2002-01-01,2009-01-01,2.0,1.0,2.0,0.0,,,,,,,,0,F,58.0,37.0,44.0,,,,7.0,,2,"model, actor/actress",0,1,1,0,0,42.331427,-83.0457538,,,
Roshumba Williams,1968-08-01,"Chicago, Illinois, U.S.",,,Gary Robert Durdin,1992-01-01,1994-01-01,1.0,1.0,,0.0,1966-12-11,"Philadelphia, Pennsylvania, U.S.",,,1.0,1.0,2.0,1,F,55.0,24.0,26.0,57.0,26.0,28.0,2.0,2.0,1,model,1,1,1,0,0,41.8781136,-87.6297982,39.9525839,-75.1652215,1068.0014023927242
Devon Elizabeth Windsor,1994-03-07,"St. Louis, Missouri, U.S.",,,Jonathan Barbara ​,2019-01-01,,1.0,0.0,2.0,0.0,,,,,,,,0,F,29.0,25.0,,,,,4.0,,1,model,0,1,0,0,0,38.6270025,-90.19940419999999,,,
Anya Wu,1976-02-17,Taiwan,,,Kong Zhong ​,2012-01-01,,1.0,0.0,2.0,0.0,,,,,,,,0,F,47.0,36.0,,,,,11.0,,2,"model, actor/actress",0,1,0,0,0,23.69781,120.960515,,,
Darya Alexandrovna Zhukova,1981-06-08,"Moscow, Russian SFSR, Soviet Union",,,Roman Abramovich​ ​,2008-01-01,2018-01-01,2.0,1.0,3.0,0.0,,,,,,,,0,F,42.0,27.0,37.0,,,,10.0,,1,model,0,1,1,0,0,55.755826,37.6173,,,
María Gimena de los Milagros Accardi,1985-05-27,"Buenos Aires, Argentina",,,Nicolás Vázquez ​,2016-01-01,,1.0,0.0,,0.0,,,,,,,,0,F,38.0,31.0,,,,,7.0,,3,"model, actor/actress, singer",0,1,0,0,0,-34.6036844,-58.3815591,,,
Graciela Alfano,1952-12-14,"Buenos Aires, Argentina",,,Andrés Ruszkowski​ ​,1971-01-01,,2.0,2.0,3.0,0.0,,,,,,,,0,F,71.0,19.0,,,,,52.0,,2,"model, actor/actress",0,1,1,0,0,-34.6036844,-58.3815591,,,
Ángeles Constanza Balbiani Morea,1981-08-07,"Buenos Aires, Argentina",,,Félix Maglione​ ​,2007-01-01,2019-01-01,1.0,1.0,2.0,0.0,,,,,,,,0,F,42.0,26.0,38.0,,,,12.0,,2,"model, singer",0,1,1,0,0,-34.6036844,-58.3815591,,,
Paula Chaves Schulz,1984-09-06,"Lobos, Argentina",,,Pedro Alfonso ​,2014-01-01,,1.0,0.0,3.0,0.0,,,,,,,,0,F,39.0,30.0,,,,,9.0,,1,model,0,1,0,0,0,-35.1853611,-59.0975278,,,
Jessica Wanda Judith Cirio Perutich,1985-03-21,"Lanús, Buenos Aires, Argentina",,,Martín Insaurralde ​,2014-01-01,,1.0,0.0,1.0,0.0,,,,,,,,0,F,38.0,29.0,,,,,9.0,,2,"model, dancer",0,1,0,0,0,-34.7067455,-58.3917289,,,
Olga Karina Jelinek,1981-03-22,"Villa María, Córdoba, Argentina",,,Leonardo Fariña​ ​,2011-01-01,2013-01-01,1.0,1.0,,0.0,,,,,,,,0,F,42.0,30.0,32.0,,,,2.0,,1,model,0,1,1,0,0,-32.4104614,-63.24364499999999,,,
Luisana Loreley Lopilato de la Torre,1987-05-18,"Buenos Aires, Argentina",,,Michael Bublé ​,2011-01-01,,1.0,0.0,4.0,0.0,,,,,,,,0,F,36.0,24.0,,,,,12.0,,3,"model, actor/actress, singer",0,1,0,0,0,-34.6036844,-58.3815591,,,
Noelia Marzol,1986-12-01,"Villa del Parque, Buenos Aires, Argentina",,,Ramiro Arias ​,2021-01-01,,1.0,0.0,2.0,0.0,,,,,,,,0,F,37.0,35.0,,,,,2.0,,2,"model, dancer",0,1,0,0,0,-34.6048651,-58.4905535,,,
Valeria Raquel Mazza,1972-02-17,"Rosario, Santa Fe, Argentina",,,Alejandro Gravier ​,1998-01-01,,1.0,0.0,4.0,0.0,,,,,,,,0,F,51.0,26.0,,,,,25.0,,1,model,0,1,0,0,0,-32.9587022,-60.69304159999999,,,
María Cristina De Giacomi,1956-08-23,"Buenos Aires, Argentina",,,Gustavo Yankelevich​ ​,1972-01-01,1995-01-01,1.0,1.0,,0.0,,,,,,,,0,F,67.0,16.0,39.0,,,,23.0,,1,model,0,1,1,0,0,-34.6036844,-58.3815591,,,
Wanda Nara,1986-12-10,"Boulogne Sur Mer, Buenos Aires, Argentina",,,Maxi López​ ​,2008-01-01,2013-01-01,2.0,2.0,5.0,0.0,,,,,,,,0,F,37.0,22.0,27.0,,,,5.0,,1,model,0,1,1,0,0,-34.6031594,-58.4063241,,,
Nicole Unterüberbacher Neumann,1980-10-31,"Buenos Aires, Argentina",,,Nacho Herrero​ ​,2005-01-01,2006-01-01,2.0,2.0,3.0,0.0,,,,,,,,0,F,43.0,25.0,26.0,,,,1.0,,1,model,0,1,1,0,0,-34.6036844,-58.3815591,,,
Ana Carolina Ardohaín Dos Santos,1978-01-17,"General Acha, La Pampa, Argentina",,,Martín Barrantes​ ​,2002-01-01,2005-01-01,2.0,1.0,5.0,0.0,,,,,,,,0,F,45.0,24.0,27.0,,,,3.0,,2,"model, actor/actress",0,1,1,0,0,-37.3687938,-64.59986719999999,,,
María Inés Rivero,1975-08-18,"Córdoba, Argentina",,,Jarl Ale de Basseville​ ​,1993-01-01,1996-01-01,2.0,1.0,,0.0,,,,,,,,0,F,48.0,18.0,21.0,,,,3.0,,1,model,0,1,1,0,0,-31.42008329999999,-64.1887761,,,
Nélida Mercedes Musso,1929-05-30,"Buenos Aires, Argentina",1999-12-04,"Buenos Aires, Argentina",Julio Rivera Roca​ ​,1949-01-01,1962-01-01,2.0,2.0,,0.0,,,,,,,,0,F,70.0,20.0,33.0,,,,13.0,,2,"model, dancer",0,1,1,1,0,-34.6036844,-58.3815591,,,
Maria Belén Rodríguez Cozzani,1984-09-20,"Buenos Aires, Argentina",,,Stefano De Martino​ ​,2013-01-01,2017-01-01,1.0,1.0,2.0,0.0,,,,,,,,0,F,39.0,29.0,33.0,,,,4.0,,1,model,0,1,1,0,0,-34.6036844,-58.3815591,,,
Lorena Fabiana Colotta,1970-03-04,"Buenos Aires, Argentina",,,Alexandro Hernandez ​,2016-01-01,,1.0,0.0,2.0,0.0,,,,,,,,0,F,53.0,46.0,,,,,7.0,,2,"model, actor/actress",0,1,0,0,0,-34.6036844,-58.3815591,,,
Hilda Isabel Gorrindo Sarli,1929-07-09,"Concordia, Entre Ríos, Argentina",2019-06-25,"Buenos Aires, Argentina",Ralph Heinlein​ ​,1953-01-01,1954-01-01,1.0,1.0,2.0,0.0,,,,,,,,0,F,90.0,24.0,25.0,,,,1.0,,2,"model, actor/actress",0,1,1,1,0,-31.3913921,-58.01743399999999,,,
Silvia del Carmen Süller,1958-02-10,"Buenos Aires, Argentina",,,Jorge Graviotto​ ​,1978-01-01,1980-01-01,4.0,4.0,2.0,0.0,,,,,,,,0,F,65.0,20.0,22.0,,,,2.0,,1,model,0,1,1,0,0,-34.6036844,-58.3815591,,,
Paulina Trotz,1986-06-30,,,,Gonzalo Tiesi ​,2012-01-01,,1.0,0.0,3.0,0.0,,,,,,,,0,F,37.0,26.0,,,,,11.0,,1,model,0,1,0,0,0,,,,,
Micaela Belén Vázquez,1986-11-24,"Buenos Aires, Argentina",,,Federico Larroca​ ​,2017-01-01,2019-01-01,1.0,1.0,1.0,0.0,,,,,,,,0,F,37.0,31.0,33.0,,,,2.0,,3,"model, actor/actress, singer",0,1,1,0,0,-34.6036844,-58.3815591,,,
María Lucila Vit Lepíscopo,1985-02-28,"Rosario, Argentina",,,Benjamín Alvarado​ ​,2012-01-01,2016-01-01,1.0,1.0,1.0,0.0,,,,,,,,0,F,38.0,27.0,31.0,,,,4.0,,1,model,0,1,1,0,0,-32.9587022,-60.69304159999999,,,
María do Carmo Ressurreição de Deus,1950-05-29,"Guarda, Portugal",,,Héctor Yazalde​ ​,1973-01-01,,1.0,0.0,,1.0,,,,,,,,0,F,73.0,23.0,,,,,,,2,"model, actor/actress",0,1,0,0,0,40.5308408,-7.2221421,,,
Sofía Lisa Zámolo,1983-03-21,"San Isidro, Buenos Aires, Argentina",,,José Félix Uriburu ​,2016-01-01,,1.0,0.0,1.0,0.0,,,,,,,,0,F,40.0,33.0,,,,,7.0,,1,model,0,1,0,0,0,-34.470829,-58.5286102,,,
Luciana Arrighi,1940-01-01,"Rio de Janeiro, Brazil",,,Rupert Chetwynd​ ​,1970-01-01,,1.0,0.0,2.0,1.0,,,,,,,,0,F,83.0,30.0,,,,,,,1,model,0,1,0,0,0,-22.9068467,-43.1728965,,,
Jacinda Barrett,1972-08-02,"Brisbane, Queensland, Australia",,,Gabriel Swann Macht,2004-01-01,,1.0,0.0,2.0,0.0,1972-01-22,"New York City, NY, U.S.",,,1.0,0.0,2.0,1,F,51.0,32.0,,51.0,32.0,,19.0,0.0,2,"model, actor/actress",1,1,0,0,0,-27.4704528,153.0260341,40.7127753,-74.0059728,15500.57117035704
Annalise Braakensiek,1972-12-09,"Sydney, New South Wales, Australia",2019-01-06,"Potts Point, New South Wales, Australia",Danny Goldberg​ ​,2002-01-01,2018-01-01,1.0,1.0,,0.0,,,,,,,,0,F,47.0,30.0,46.0,,,,16.0,,1,model,0,1,1,1,0,-33.8688197,151.2092955,,,
Anne Curtis-Smith,1985-02-17,"Yarrawonga, Victoria, Australia",,,Erwan Heussaff ​,2017-01-01,,1.0,0.0,1.0,0.0,,,,,,,,0,F,38.0,32.0,,,,,6.0,,3,"model, actor/actress, comedians",0,1,0,0,0,-36.0260723,146.0003241,,,
Shibani Dandekar,1980-08-27,"Pune, Maharashtra, India",,,Farhan Akhtar ​,2022-01-01,,1.0,0.0,,0.0,1974-01-09,"Mumbai, Maharashtra, India",,,2.0,1.0,2.0,0,F,43.0,42.0,,49.0,48.0,,1.0,6.0,3,"model, actor/actress, singer",0,1,0,0,0,18.5204303,73.8567437,19.0759837,72.8776559,120.15756116639187
Charlotte Dawson,1966-04-08,"Auckland,",2014-02-22,"Woolloomooloo, New South Wales, Australia",Scott Miller ​,1999-01-01,2000-01-01,1.0,1.0,,0.0,,,,,,,,0,F,48.0,33.0,34.0,,,,1.0,,1,model,0,1,1,1,0,-36.85088270000001,174.7644881,,,
Michelle van Eimeren,1972-03-15,Australia,,,Herminio Jose Lualhati Alcasid Jr.,1995-01-01,2007-01-01,2.0,1.0,2.0,0.0,1967-08-27,"Taal, Batangas, Philippines",,,2.0,1.0,3.0,1,F,51.0,23.0,35.0,56.0,28.0,40.0,12.0,5.0,1,model,0,1,1,0,0,-25.274398,133.775136,13.8893119,120.9359987,4571.7251056279365
Jesinta Campbell,1991-08-12,"Gold Coast, Queensland, Australia",,,Lance Franklin ​,2016-01-01,,1.0,0.0,2.0,0.0,,,,,,,,0,F,32.0,25.0,,,,,7.0,,1,model,0,1,0,0,0,-28.016667,153.4,,,
Karen Juanita Boyonas Gallman,1992-09-27,"Ubay, Bohol, Philippines",,,Ian Garton ​,2020-01-01,,1.0,0.0,1.0,0.0,,,,,,,,0,F,31.0,28.0,,,,,3.0,,1,model,0,1,0,0,0,9.9932029,124.4483683,,,
Jennifer Hawkins,1983-12-22,"Newcastle, New South Wales, Australia",,,Jake Wall ​,2013-01-01,,1.0,0.0,2.0,0.0,,,,,,,,0,F,40.0,30.0,,,,,10.0,,1,model,0,1,0,0,0,-32.9282712,151.7816802,,,
Kristy Hinze,1979-10-16,"Gold Coast, Queensland, Australia",,,James Henry Clark,2009-01-01,,1.0,0.0,2.0,0.0,1944-03-23,"Plainview, Texas, United States",,,1.0,,4.0,0,F,44.0,30.0,,79.0,65.0,,14.0,35.0,1,model,0,1,0,0,0,-28.016667,153.4,34.1847936,-101.7068417,12992.86791083558
Nadya Yuti Hutagalung,1974-07-28,"Sydney, New South Wales, Australia",,,Desmond Koh ​,2006-01-01,,1.0,0.0,3.0,0.0,,,,,,,,0,F,49.0,32.0,,,,,17.0,,1,model,0,1,0,0,0,-33.8688197,151.2092955,,,
Emma Ishta Douglas-Powell,1990-11-16,"Brookfield, Queensland, Australia",,,Daniel McCabe ​,2012-01-01,,1.0,0.0,1.0,0.0,,,,,,,,0,F,33.0,22.0,,,,,11.0,,1,model,0,1,0,0,0,-27.4946276,152.9088908,,,
Mallory Jansen,,,,,Simon Phan ​,2014-01-01,,1.0,0.0,,0.0,,,,,,,,0,F,,,,,,,9.0,,2,"model, actor/actress",0,1,0,0,0,,,,,
Miranda May Kerr,1983-04-20,"Sydney, New South Wales, Australia",,,Orlando Jonathan Blanchard Copeland Bloom,2010-01-01,2013-01-01,2.0,1.0,3.0,0.0,1977-01-13,"Canterbury, Kent, England",,,1.0,1.0,2.0,1,F,40.0,27.0,30.0,46.0,33.0,36.0,3.0,6.0,3,"musician, model, writers",0,1,1,0,0,-33.8688197,151.2092955,51.280233,1.0789089,16932.1680825875
Linda Kerridge,1954-11-18,"Wagga Wagga, New South Wales, Australia",,,Corey Parker ​,1989-01-01,1992-01-01,1.0,1.0,,0.0,1965-07-08,"New York City, U.S.",,,,,,0,F,69.0,35.0,38.0,58.0,24.0,27.0,3.0,11.0,1,model,0,1,1,0,0,-35.1025977,147.3655103,40.7127753,-74.0059728,16366.531673480476
Ksenija Lukich,1990-02-12,,,,Dan Bragg ​,2016-01-01,,1.0,0.0,,0.0,,,,,,,,0,F,33.0,26.0,,,,,7.0,,1,model,0,1,0,0,0,,,,,
Eleanor Nancy Gow,1964-03-29,"Killara, New South Wales, Australia",,,Gilles Bensimon​ ​,1986-01-01,1989-01-01,2.0,2.0,2.0,0.0,,,,,,,,0,F,59.0,22.0,25.0,,,,3.0,,2,"model, actor/actress",0,1,1,0,0,-33.7677125,151.1580393,,,
Chloe Maxwell,,,,,Mat Rogers ​,2008-01-01,,1.0,0.0,2.0,0.0,,,,,,,,0,F,,,,,,,15.0,,2,"journalist, model",0,1,0,0,0,,,,,
Tara Moss,1973-10-02,"Victoria, British Columbia, Canada",,,Martin Legge  ​ ​,1995-01-01,1997-01-01,3.0,2.0,,0.0,,,,,,,,0,F,50.0,22.0,24.0,,,,2.0,,1,model,0,1,1,0,0,48.4284207,-123.3656444,,,
Sarah O'Hare,1972-05-31,"Croydon, London, England",,,Lachlan Keith Murdoch,1999-01-01,,1.0,0.0,3.0,0.0,1971-09-08,"London, England",,,1.0,0.0,3.0,1,F,51.0,27.0,,52.0,28.0,,24.0,1.0,1,model,0,1,0,0,0,51.3769529,-0.0956895,51.5072178,-0.1275862,14.652526670277243
Zoe Naylor,1977-07-04,"Sydney, New South Wales, Australia",,,James Trude​ ​,2007-01-01,,1.0,1.0,2.0,0.0,,,,,,,,0,F,46.0,30.0,,,,,16.0,,2,"model, actor/actress",0,1,1,0,0,-33.8688197,151.2092955,,,
Shanina Shaik,1991-02-11,"Melbourne, Australia",,,DJ Ruckus​ ​,2018-01-01,2019-01-01,1.0,1.0,1.0,0.0,,,,,,,,0,F,32.0,27.0,28.0,,,,1.0,,1,model,0,1,1,0,0,-37.8136276,144.9630576,,,
Alyssa Sutherland,1982-09-23,"Brisbane, Queensland, Australia",,,Laurence Shanet​ ​,2012-01-01,2013-01-01,1.0,1.0,,0.0,,,,,,,,0,F,41.0,30.0,31.0,,,,1.0,,2,"model, actor/actress",0,1,1,0,0,-27.4704528,153.0260341,,,
Olympia Montana Vukadinović,1993-01-07,"Melbourne, Victoria, Australia",,,Tom Bellchambers ​,2022-01-01,,1.0,0.0,,0.0,,,,,,,,0,F,30.0,29.0,,,,,1.0,,1,model,0,1,0,0,0,-37.8136276,144.9630576,,,
Raelene Elaine Villania,1986-06-29,"Camperdown, Sydney, New South Wales, Australia",,,Andrew James Arellano,2014-01-01,,1.0,0.0,4.0,0.0,1980-01-16,"San Jose, California, U.S.",,,1.0,0.0,4.0,0,F,37.0,28.0,,43.0,34.0,,9.0,6.0,3,"model, actor/actress, singer",1,1,0,0,0,-33.88622429999999,151.1791091,37.33874,-121.8852525,11968.002728696858
Candice Ann Falzon,1985-03-13,"Sydney, New South Wales, Australia",,,David Warner ​,2015-01-01,,1.0,0.0,3.0,0.0,,,,,,,,0,F,38.0,30.0,,,,,8.0,,1,model,0,1,0,0,0,-33.8688197,151.2092955,,,
Kate Waterhouse,1983-12-07,,,,Luke Ricketson ​,2012-01-01,,1.0,0.0,2.0,0.0,,,,,,,,0,F,40.0,29.0,,,,,11.0,,1,model,0,1,0,0,0,,,,,
Pia Loyola Blanco,1983-11-02,"Viña del Mar, Chile",,,Brad Miller​ ​,2007-01-01,2016-01-01,2.0,1.0,2.0,0.0,,,,,,,,0,F,40.0,24.0,33.0,,,,9.0,,1,model,0,1,1,0,0,-33.0153481,-71.55002759999999,,,
Lara Bingle,1987-06-22,"Caringbah, New South Wales, Australia",,,Samuel Henry John Worthington,2014-01-01,,1.0,0.0,3.0,0.0,1976-08-02,"Godalming, Surrey, England",,,1.0,0.0,3.0,1,F,36.0,27.0,,47.0,38.0,,9.0,11.0,1,model,1,1,0,0,0,-34.0432609,151.1235685,51.18573199999999,-0.612808,17050.192696405527
Lisl Goldarbeiter,1909-03-23,"Vienna, Austria-Hungary",1997-12-14,"Budapest, Hungary",Fritz Spielmann​ ​,1930-01-01,1937-01-01,2.0,1.0,,0.0,,,,,,,,0,F,88.0,21.0,28.0,,,,7.0,,1,model,0,1,1,1,0,48.2081743,16.3738189,,,
Eleonore von Habsburg,1994-02-28,"Salzburg, Austria",,,Jérôme d'Ambrosio ​,2020-01-01,,1.0,0.0,1.0,0.0,,,,,,,,0,F,29.0,26.0,,,,,3.0,,1,model,0,1,0,0,0,47.80949,13.05501,,,
Charlotte Hildegard Baierl,1928-11-06,"Vienna, Austria",2015-01-14,"Vienna, Austria",Hans Hass ​ ​,1950-01-01,,1.0,0.0,1.0,1.0,1919-01-23,"Vienna, Austria",2013-06-16,,1.0,,2.0,0,F,87.0,22.0,,94.0,31.0,,63.0,9.0,1,model,0,1,0,1,1,48.2081743,16.3738189,48.2081743,16.3738189,0.0
Katharina Nahlik,1995-08-19,"Vienna, Austria",,,Shilo Mazepa​ ​,2019-01-01,2023-01-01,1.0,1.0,,0.0,,,,,,,,0,F,28.0,24.0,28.0,,,,4.0,,1,model,0,1,1,0,0,48.2081743,16.3738189,,,
Bijori Barkatullah,,,,,Intekhab Dinar ​,2013-01-01,,2.0,2.0,,0.0,,,,,1.0,0.0,,1,F,,,,,,,10.0,,4,"model, actor/actress, dancer, singer",0,1,1,0,0,,,,,
Mehbooba Mahnoor Chandni,1983-01-19,,,,Bappa Mazumder ​,2008-01-01,2017-01-01,1.0,1.0,,0.0,,,,,,,,0,F,40.0,25.0,34.0,,,,9.0,,3,"model, actor/actress, dancer",0,1,1,0,0,,,,,
Bipasha Hayat,1971-03-23,,,,Tauquir Ahmed ​,1999-01-01,,1.0,0.0,1.0,0.0,1966-03-05,,,,1.0,0.0,1.0,1,F,52.0,28.0,,57.0,33.0,,24.0,5.0,2,"model, actor/actress",0,1,0,0,0,,,,,
Shomi Kaiser,,,,,Riingo Banerjee​ ​,1999-01-01,2001-01-01,3.0,2.0,,0.0,1969-01-01,"Kolkata, India",,,,,,0,F,,,,54.0,30.0,32.0,2.0,,2,"model, actor/actress",0,1,1,0,0,,,22.572646,88.36389500000001,
Syeda Tuhin Ara Karim,1978-05-01,,,,Ashir Ahmed​ ​,2007-01-01,2010-01-01,3.0,2.0,1.0,0.0,,,,,,,,0,F,45.0,29.0,32.0,,,,3.0,,3,"model, actor/actress, dancer",0,1,1,0,0,,,,,
Bidya Sinha Saha Mim,,,,,Sony Poddar  ​,2022-01-01,,1.0,0.0,,0.0,,,,,,,,0,F,,,,,,,1.0,,2,"model, actor/actress",0,1,0,0,0,,,,,
Rafiath Rashid Mithila,1984-05-25,,,,Tahsan Rahman Khan​ ​,2006-01-01,2017-01-01,2.0,1.0,1.0,0.0,1979-10-18,,,,1.0,1.0,1.0,1,F,39.0,22.0,33.0,44.0,27.0,38.0,11.0,5.0,2,"model, singer",0,1,1,0,0,,,,,
Masuma Rahman Nabila,,"Jeddah, Saudi Arabia",,,Jubaidul Haque ​,2018-01-01,,1.0,0.0,,0.0,,,,,,,,0,F,,,,,,,5.0,,1,model,0,1,0,0,0,21.485811,39.19250479999999,,,
Mousumi Nag,,,,,Mithu Bishwas,2013-01-01,,1.0,0.0,2.0,0.0,,,,,,,,0,F,,,,,,,10.0,,2,"model, actor/actress",0,1,0,0,0,,,,,
Nasrin Aktar. Nargis,1978-05-13,"Dhaka, Bangladesh",,,Mustafizur Rahman Riyel​ ​,2012-01-01,,1.0,0.0,,0.0,,,,,,,,0,F,45.0,34.0,,,,,11.0,,2,"model, actor/actress",0,1,0,0,0,23.804093,90.4152376,,,
Sadia Jahan Prova,,"Shariatpur, Bangladesh",,,Ziaul Faruq Apurba​ ​,2010-01-01,2011-01-01,2.0,2.0,,0.0,1983-06-27,,,,3.0,2.0,1.0,1,F,,,,40.0,27.0,28.0,1.0,,2,"model, actor/actress",0,1,1,0,0,23.2197029,90.3501258,,,
Dilruba Yasmeen Ruhee,1988-05-25,"Dhaka, Bangladesh",,,Munsur Ali ​,2014-01-01,,1.0,0.0,,0.0,1978-05-25,"Sylhet, Bangladesh",,,1.0,0.0,,1,F,35.0,26.0,,45.0,36.0,,9.0,10.0,2,"model, actor/actress",0,1,0,0,0,23.804093,90.4152376,24.9047808,91.86000790000001,190.7828262287701
Orchita Sporshia,,,,,Rafsan Ahsan​ ​,2015-01-01,2017-01-01,1.0,1.0,,0.0,,,,,,,,0,F,,,,,,,2.0,,1,model,0,1,1,0,0,,,,,
Nusrat Imrose Tisha,1989-02-20,"Rajshahi, Bangladesh",,,Mostofa Sarwar Farooki​ ​,2010-01-01,,1.0,0.0,1.0,0.0,1973-05-02,"Nakhalpara, Dhaka, Bangladesh",,,1.0,0.0,1.0,1,F,34.0,21.0,,50.0,37.0,,13.0,16.0,2,"model, actor/actress",0,1,0,0,0,24.3746497,88.60036649999999,23.7724068,90.3966159,194.26598668431438
Suzana Zafar,,,,,Hridoy Khan​ ​,2014-01-01,2015-01-01,1.0,1.0,,0.0,,,,,,,,0,F,,,,,,,1.0,,1,model,0,1,1,0,0,,,,,
Jade Foret,1990-09-26,"Woluwe-Saint-Lambert, Belgium",,,Arnaud Lagardère ​,2013-01-01,,1.0,0.0,3.0,0.0,,,,,,,,0,F,33.0,23.0,,,,,10.0,,1,model,0,1,0,0,0,50.8429581,4.4243679,,,
Ingrid Vandebosch,1970-11-08,"Zichen-Zussen-Bolder, Limburg, Belgium",,,Jeff Gordon ​,2006-01-01,,1.0,0.0,2.0,0.0,1971-08-04,,,,,,,0,F,53.0,36.0,,52.0,35.0,,17.0,1.0,1,model,0,1,0,0,0,50.7933496,5.6245555,,,
Amra Silajdžić,1984-10-01,"Sarajevo, SR Bosnia and Herzegovina, SFR Yugoslavia",,,Vladimir Vićentijević​ ​,2001-01-01,2007-01-01,2.0,1.0,5.0,0.0,,,,,,,,0,F,39.0,17.0,23.0,,,,6.0,,2,"model, actor/actress",0,1,1,0,0,43.8562586,18.4130763,,,
Mpule Keneilwe Kwelagobe,1979-11-14,"Gaborone, Botswana",,,Abhijoy Gandhi ​,2015-01-01,,1.0,0.0,,0.0,,,,,,,,0,F,44.0,36.0,,,,,8.0,,1,model,0,1,0,0,0,-24.6282079,25.9231471,,,
Camila Alves,1983-01-28,"Itambacuri, Minas Gerais, Brazil",,,Matthew David McConaughey,2012-01-01,,1.0,0.0,3.0,0.0,1969-11-04,"Uvalde, Texas, U.S.",,,1.0,0.0,3.0,1,F,40.0,29.0,,54.0,43.0,,11.0,14.0,1,model,1,1,0,0,0,-18.0343603,-41.6799844,29.20968359999999,-99.7861679,8150.161202571225
Michelle Kristine da Silva Alves,1978-09-19,"Londrina, Paraná, Brazil",,,Guy Oseary ​,2017-01-01,,1.0,0.0,4.0,0.0,1972-10-03,"Jerusalem, Israel",,,1.0,0.0,4.0,1,F,45.0,39.0,,51.0,45.0,,6.0,6.0,1,model,0,1,0,0,0,-23.3197305,-51.1662008,31.768319,35.21371,11025.622923911678
Giovanna Antonelli Prado,1976-03-18,"Rio de Janeiro, Brazil",,,Ricardo Medina​ ​,2000-01-01,2002-01-01,2.0,2.0,3.0,0.0,,,,,,,,0,F,47.0,24.0,26.0,,,,2.0,,2,"model, actor/actress",0,1,1,0,0,-22.9068467,-43.1728965,,,
Taís Bianca Gama de Araújo,1978-11-25,"Rio de Janeiro, Brazil",,,Luís Lázaro Sacramento Ramos,2007-01-01,,1.0,0.0,2.0,0.0,1978-11-01,"Salvador, Bahia, Brazil",,,1.0,0.0,2.0,1,F,45.0,29.0,,45.0,29.0,,16.0,0.0,2,"model, actor/actress",1,1,0,0,0,-22.9068467,-43.1728965,-12.9777334,-38.501648,1209.2722582554547
Viviane dos Santos Araújo,1975-03-25,"Rio de Janeiro, Brazil",,,Belo ,1998-01-01,2007-01-01,3.0,2.0,,0.0,,,,,,,,0,F,48.0,23.0,32.0,,,,9.0,,1,model,0,1,1,0,0,-22.9068467,-43.1728965,,,
Ana Paula Arósio,1975-07-16,"São Paulo, Brazil",,,Henrique Pinheiro ​,2010-01-01,,1.0,0.0,,0.0,,,,,,,,0,F,48.0,35.0,,,,,13.0,,1,model,0,1,0,0,0,-23.5557714,-46.6395571,,,
Thaila Ayala Sales,1986-04-14,"Presidente Prudente, São Paulo, Brazil",,,Paulo Vilhena ,2011-01-01,2013-01-01,1.0,1.0,,0.0,,,,,,,,0,F,37.0,25.0,27.0,,,,2.0,,2,"model, actor/actress",0,1,1,0,0,-22.1205939,-51.3874076,,,
Karina Bacchi,1976-10-08,"São Manuel, São Paulo, Brazil",,,Sérgio Amon​ ​,2001-01-01,2011-01-01,2.0,1.0,1.0,0.0,,,,,,,,0,F,47.0,25.0,35.0,,,,10.0,,1,model,0,1,1,0,0,-22.7326916,-48.5725621,,,
Nicole Mariana Bahls,1985-11-15,"Londrina, Paraná, Brazil",,,Marcelo Bimbi​ ​,2018-01-01,2021-01-01,1.0,1.0,,0.0,,,,,,,,0,F,38.0,33.0,36.0,,,,3.0,,1,model,0,1,1,0,0,-23.3197305,-51.1662008,,,
Ana Beatriz Barros,1982-05-29,"Itabira, Minas Gerais, Brazil",,,Karim El Chiaty ​,2016-01-01,,1.0,0.0,2.0,0.0,,,,,,,,0,F,41.0,34.0,,,,,7.0,,1,model,0,1,0,0,0,-19.6243501,-43.2235848,,,
Sthefany Fernandes de Brito,1987-06-19,"São Paulo, Brazil",,,Alexandre Pato​ ​,2009-01-01,2010-01-01,2.0,1.0,1.0,0.0,,,,,,,,0,F,36.0,22.0,23.0,,,,1.0,,2,"model, actor/actress",0,1,1,0,0,-23.5557714,-46.6395571,,,
Yasmin Botelho Fernandez,1988-06-06,"Gávea, Rio de Janeiro, Brazil",,,Evandro Soldati​ ​,2012-01-01,2019-01-01,1.0,1.0,,0.0,1985-04-17,"Ubá, Minas Gerais, Brazil",,,1.0,1.0,,1,F,35.0,24.0,31.0,38.0,27.0,34.0,7.0,3.0,1,model,0,1,1,0,0,-22.9760044,-43.2285147,-21.1208656,-42.9413096,208.3946486304439
Gisele Caroline Bündchen,1980-07-20,"Horizontina, Rio Grande do Sul, Brazil",,,Tom Brady​ ​,2009-01-01,2022-01-01,1.0,1.0,2.0,0.0,,,,,,,,0,F,43.0,29.0,42.0,,,,13.0,,1,model,0,1,1,0,0,-27.628239,-54.30597280000001,,,
Mylla Christie Vitta Gorga,1971-06-10,"São Paulo, SP, Brazil",,,Malcolm Montgomery​ ​,1993-01-01,1999-01-01,2.0,1.0,1.0,0.0,,,,,,,,0,F,52.0,22.0,28.0,,,,6.0,,2,"model, actor/actress",0,1,1,0,0,-23.5557714,-46.6395571,,,
Cristina Córdula,1964-10-30,"Rio de Janeiro, Brazil",,,Frédéric Cassin ​,2017-01-01,,1.0,0.0,,0.0,,,,,,,,0,F,59.0,53.0,,,,,6.0,,1,model,0,1,0,0,0,-22.9068467,-43.1728965,,,
Giovanna Ewbank Baldacconi,1986-09-14,"São Paulo, Brazil",,,Bruno Gagliasso Marques,2010-01-01,,1.0,0.0,3.0,0.0,1982-04-13,"Rio de Janeiro, Brazil",,,2.0,2.0,3.0,0,F,37.0,24.0,,41.0,28.0,,13.0,4.0,2,"model, actor/actress",1,1,0,0,0,-23.5557714,-46.6395571,-22.9068467,-43.1728965,361.4843501966867
Christine Fernandes Alves,1968-03-01,"Chicago, Illinois, U.S.",,,Marcelo Magalhães Serrado,1994-01-01,1999-01-01,2.0,2.0,1.0,0.0,1967-02-10,"Rio de Janeiro, Brazil",,,1.0,,3.0,1,F,55.0,26.0,31.0,56.0,27.0,32.0,5.0,1.0,1,model,1,1,1,0,0,41.8781136,-87.6297982,-22.9068467,-43.1728965,8530.866508136218
Maria Carolina Álvares Ferraz,1968-01-25,"Goiânia, Goiás, Brazil",,,Mário Cohen​ ​,1994-01-01,1998-01-01,1.0,1.0,2.0,0.0,,,,,,,,0,F,55.0,26.0,30.0,,,,4.0,,2,"model, dancer",0,1,1,0,0,-16.6868912,-49.2647943,,,
Vera Fischer ,1951-11-27,"Blumenau, Santa Catarina, Brazil",,,Perilúcio José de Almeida,1972-01-01,1987-01-01,2.0,2.0,2.0,0.0,1939-03-06,"Rio de Janeiro, Brazil",2009-06-17,"Rio de Janeiro, Brazil",2.0,2.0,5.0,0,F,72.0,21.0,36.0,70.0,33.0,48.0,15.0,12.0,2,"model, actor/actress",1,1,1,0,1,-26.9165792,-49.0717331,-22.9068467,-43.1728965,743.2337401890632
Isabeli Bergossi Fontana,1983-07-04,"Curitiba, Paraná, Brazil",,,Álvaro Jacomossi​ ​,2000-01-01,2004-01-01,3.0,2.0,2.0,0.0,,,,,,,,0,F,40.0,17.0,21.0,,,,4.0,,1,model,0,1,1,0,0,-25.4372382,-49.2699727,,,
Melanie Nunes Fronckowiak,1988-01-16,"Araranguá, Santa Catarina, Brazil",,,Rodrigo Junqueira Reis Santoro,2016-01-01,,1.0,0.0,1.0,0.0,1975-08-22,"Petrópolis, Rio de Janeiro, Brazil",,,1.0,0.0,1.0,1,F,35.0,28.0,,48.0,41.0,,7.0,13.0,2,"model, singer",1,1,0,0,0,-28.9370964,-49.4840256,-22.5112498,-43.1779306,953.3179274036269
Adriane Kelemen Galisteu,1973-04-18,"São Paulo, Brazil",,,Roberto Luiz Justus,1998-01-01,1999-01-01,2.0,1.0,,0.0,1955-04-30,"São Paulo, Brazil",,,2.0,2.0,4.0,1,F,50.0,25.0,26.0,68.0,43.0,44.0,1.0,18.0,1,model,0,1,1,0,0,-23.5557714,-46.6395571,-23.5557714,-46.6395571,0.0
Helen Ganzarolli,1979-09-29,"Presidente Venceslau, São Paulo, Brazil",,,César Kuratomi ​,2018-01-01,,1.0,0.0,,0.0,,,,,,,,0,F,44.0,39.0,,,,,5.0,,1,model,0,1,0,0,0,-21.8749171,-51.8441756,,,
Luciana Gimenez Morad,1969-11-03,"São Paulo, Brazil",,,Marcelo de Carvalho​ ​,2006-01-01,2018-01-01,1.0,1.0,2.0,0.0,,,,,,,,0,F,54.0,37.0,49.0,,,,12.0,,2,"model, actor/actress",0,1,1,0,0,-23.5557714,-46.6395571,,,
Yanna Lavigne Inagaki,1989-11-29,"Osasco, São Paulo, Brazil",,,Bruno Sang Gissoni,2018-01-01,,1.0,0.0,2.0,0.0,1986-12-09,"Rio de Janeiro, Brazil",,,1.0,1.0,2.0,1,F,34.0,29.0,,37.0,32.0,,5.0,3.0,1,model,1,1,0,0,0,-23.533385,-46.7914568,-22.9068467,-43.1728965,376.2662573240457
Adriana Lima,1981-06-12,"Salvador, Bahia, Brazil",,,Marko Jarić​ ​,2009-01-01,2016-01-01,1.0,1.0,3.0,0.0,,,,,,,,0,F,42.0,28.0,35.0,,,,7.0,,1,model,0,1,1,0,0,-12.9777334,-38.501648,,,
Fernanda Cama Pereira Lima,1977-06-25,"Porto Alegre, Rio Grande do Sul, Brazil",,,Rodrigo Hilbert Alberton,2020-01-01,,1.0,0.0,3.0,0.0,1980-04-22,"Orleans, Santa Catarina, Brazil",,,1.0,0.0,3.0,1,F,46.0,43.0,,43.0,40.0,,3.0,3.0,1,model,1,1,0,0,0,-30.0368176,-51.2089887,-28.3586518,-49.2882068,263.77377007412383
Shirley Patricia Mallmann,1977-02-15,"Santa Clara do Sul, Rio Grande do Sul, Brazil",,,Zaiya Latt ​,2002-01-01,,1.0,0.0,2.0,0.0,,,,,,,,0,F,46.0,25.0,,,,,21.0,,1,model,0,1,0,0,0,-29.4691069,-52.086458,,,
Fiorella Gelli Mattheis,1988-02-10,"Petrópolis, Rio de Janeiro, Brazil",,,Flávio Canto​ ​,2013-01-01,2014-01-01,2.0,1.0,,0.0,,,,,,,,0,F,35.0,25.0,26.0,,,,1.0,,2,"model, actor/actress",0,1,1,0,0,-22.5112498,-43.1779306,,,
Priscilla Meirelles de Almeida,1983-09-05,"Belém, Brazil",,,John Anthony Siason Estrada,2011-01-01,,1.0,0.0,1.0,0.0,1973-06-13,"Quezon City, Philippines",,,2.0,1.0,5.0,0,F,40.0,28.0,,50.0,38.0,,12.0,10.0,1,model,1,1,0,0,0,-1.4563073,-48.5012804,14.6760413,121.0437003,18149.77435220301
Sasha Meneghel Szafir,1998-07-28,"Rio de Janeiro, Brazil",,,João Figueiredo ​,2021-01-01,,1.0,0.0,,0.0,,,,,,,,0,F,25.0,23.0,,,,,2.0,,2,"model, actor/actress",0,1,0,0,0,-22.9068467,-43.1728965,,,
Valéria Monteiro,1965-03-26,"Belo Horizonte, MG, Brazil",,,Justin Kaufman​ ​,1994-01-01,1998-01-01,2.0,2.0,1.0,0.0,,,,,,,,0,F,58.0,29.0,33.0,,,,4.0,,2,"journalist, model",0,1,1,0,0,-19.919052,-43.9386685,,,
Tainá Müller,1982-06-01,"Porto Alegre, Rio Grande do Sul, Brazil",,,Daniel Galera​ ​,2000-01-01,2007-01-01,2.0,1.0,1.0,0.0,,,,,,,,0,F,41.0,18.0,25.0,,,,7.0,,2,"model, actor/actress",0,1,1,0,0,-30.0368176,-51.2089887,,,
Débora dos Santos Nascimento,1985-06-16,"Suzano, São Paulo, Brazil",,,Arthur Rangel​ ​,2009-01-01,2012-01-01,2.0,2.0,1.0,0.0,,,,,,,,0,F,38.0,24.0,27.0,,,,3.0,,2,"model, actor/actress",0,1,1,0,0,-23.5376111,-46.3092622,,,
Laura Neiva,1993-09-21,"São Paulo, Brazil",,,Chay Suede ​,2019-01-01,,1.0,0.0,2.0,0.0,1992-06-30,"Vila Velha, Espírito Santo, Brazil",,,1.0,0.0,2.0,1,F,30.0,26.0,,31.0,27.0,,4.0,1.0,2,"model, actor/actress",0,1,0,0,0,-23.5557714,-46.6395571,-20.3518079,-40.3079697,743.7007919555293
Luma de Oliveira,1964-12-10,"Nova Friburgo, Rio de Janeiro, Brazil",,,Eike Fuhrken Batista da Silva,1991-01-01,2004-01-01,1.0,1.0,2.0,0.0,1956-11-03,"Governador Valadares, Minas Gerais, Brazil",,,1.0,1.0,3.0,1,F,59.0,27.0,40.0,67.0,35.0,48.0,13.0,8.0,1,model,0,1,1,0,0,-22.2887261,-42.5340796,-18.8558333,-41.95718979999999,386.4137768249925
Sílvia Escobar Pfeifer,1958-02-24,"Porto Alegre, Rio Grande do Sul, Brazil",,,Nelson Chamma Filho ​,1983-01-01,,1.0,0.0,2.0,0.0,,,,,,,,0,F,65.0,25.0,,,,,40.0,,2,"model, actor/actress",0,1,0,0,0,-30.0368176,-51.2089887,,,
Patricia Gadelha Pillar,1964-01-11,"Brasília, DF, Brazil",,,Zé Renato​ ​,1985-01-01,1995-01-01,2.0,2.0,,0.0,,,,,,,,0,F,59.0,21.0,31.0,,,,10.0,,2,"model, actor/actress",0,1,1,0,0,-15.7975154,-47.89188739999999,,,
Camila Tavares de Queiroz,1993-06-27,"Ribeirão Preto, São Paulo, Brazil",,,Klebber Toledo,2018-01-01,,1.0,0.0,,0.0,1986-06-14,"Bom Jesus dos Perdões, São Paulo, Brazil",,,1.0,0.0,,1,F,30.0,25.0,,37.0,32.0,,5.0,7.0,1,model,1,1,0,0,0,-21.1694018,-47.8110855,-23.1355496,-46.4646825,258.8848243821223
Helena Ranaldi Nogueira,1966-05-24,"São Paulo, Brazil",,,Ricardo Waddington​ ​,1994-01-01,2004-01-01,2.0,2.0,1.0,0.0,,,,,,,,0,F,57.0,28.0,38.0,,,,10.0,,2,"model, actor/actress",0,1,1,0,0,-23.5557714,-46.6395571,,,
Laís Pereira de Oliveira,1989-10-05,"Miguel Alves, Piauí, Brazil",,,Joakim Noah ​,2022-01-01,,1.0,0.0,1.0,0.0,,,,,,,,0,F,34.0,33.0,,,,,1.0,,1,model,0,1,0,0,0,-4.1706015,-42.8947096,,,
Daniella Sarahyba Fernandes,1984-07-08,"Rio de Janeiro, Brazil",,,Wolff Klabin ​,2007-01-01,,1.0,0.0,2.0,0.0,,,,,,,,0,F,39.0,23.0,,,,,16.0,,1,model,0,1,0,0,0,-22.9068467,-43.1728965,,,
Danielle Aparecida Jesus de Souza,1981-01-02,"Lages, Santa Catarina, Brazil",,,Dentinho ​,2012-01-01,,1.0,0.0,3.0,0.0,,,,,,,,0,F,42.0,31.0,,,,,11.0,,1,model,0,1,0,0,0,-27.8178927,-50.3264241,,,
Bruna Tenório,1989-06-27,"Maceió, Alagoas, Brazil",,,Felipe Faria ​,2017-01-01,,1.0,0.0,1.0,0.0,,,,,,,,0,F,34.0,28.0,,,,,6.0,,1,model,0,1,0,0,0,-9.6660417,-35.7352167,,,
Caroline Aparecida Trentini,1987-07-06,"Panambi, Rio Grande do Sul, Brazil",,,Fabio Bartelt ​,2012-01-01,,1.0,0.0,2.0,0.0,,,,,,,,0,F,36.0,25.0,,,,,11.0,,1,model,0,1,0,0,0,-28.2906771,-53.4991557,,,
Fernanda Maria Leite Young,1970-05-01,"Niterói, Rio de Janeiro, Brazil",2019-08-25,"Paraisópolis, Minas Gerais, Brazil",Alexandre Machado ​,1993-01-01,,1.0,0.0,4.0,0.0,,,,,,,,0,F,49.0,23.0,,,,,26.0,,4,"musician, model, writers, playwrights",0,1,0,1,0,-22.8807073,-43.1013526,,,
Catherine Victoria Lockwood,1965-04-20,"Windsor, Windsor and Maidenhead, England",,,Charles Edward Maurice Spencer,1989-01-01,1997-01-01,2.0,2.0,5.0,0.0,1964-05-20,"London, England",,,3.0,2.0,7.0,1,F,58.0,24.0,32.0,59.0,25.0,33.0,8.0,1.0,1,model,0,1,1,0,0,51.48034209999999,-0.6157136999999999,51.5072178,-0.1275862,33.92484384606066
Anshu Ambani,,"London, United Kingdom",,,Sachin Saggar ​,2003-01-01,,1.0,0.0,1.0,0.0,,,,,,,,0,F,,,,,,,20.0,,2,"model, actor/actress",0,1,0,0,0,51.5072178,-0.1275862,,,
Alia Bhatt,1993-03-15,India,,,Ranbir Kapoor ​,2022-01-01,,1.0,0.0,1.0,0.0,1982-09-28,"Bombay, Maharashtra, India",,,1.0,0.0,1.0,1,F,30.0,29.0,,41.0,40.0,,1.0,11.0,2,"model, actor/actress",0,1,0,0,0,20.593684,78.96288,19.0759837,72.8776559,658.4378254417139
Julie Dorne Brown,,"Bedfordshire, England",,,Martin Schuemann ​,2001-01-01,,1.0,1.0,1.0,0.0,,,,,,,,0,F,,,,,,,22.0,,2,"model, actor/actress",0,1,1,0,0,52.0627394,-0.5292091,,,
Shakira Baksh,1947-02-23,"St. Cuthbert's Mission, British Guiana (now Guyana)",,,Maurice Joseph Micklewhite,1973-01-01,,1.0,0.0,1.0,0.0,1933-03-14,"Rotherhithe, London, England",,,2.0,1.0,2.0,0,F,76.0,26.0,,90.0,40.0,,50.0,14.0,2,"model, actor/actress",0,1,0,0,0,4.860416,-58.93018,51.49628999999999,-0.0411931,7477.055043215821
Abigail Marie Clancy,1986-01-10,"Liverpool, England",,,Peter Crouch ​,2011-01-01,,1.0,0.0,4.0,0.0,,,,,,,,0,F,37.0,25.0,,,,,12.0,,1,model,0,1,0,0,0,53.4083714,-2.9915726,,,
Mary-Gaye Georgiana Lorna Curzon,1947-02-21,,,,Esmond Cooper-Key​ ​,1971-01-01,1976-01-01,4.0,4.0,5.0,0.0,,,,,,,,0,F,76.0,24.0,29.0,,,,5.0,,1,model,0,1,1,0,0,,,,,
Rachel Grant,1977-09-25,"Parañaque, Philippines",,,Stephen Hersh ​,2019-01-01,,1.0,0.0,,0.0,,,,,,,,0,F,46.0,42.0,,,,,4.0,,2,"model, actor/actress",0,1,0,0,0,14.4793095,121.0198229,,,
Amy Lyon,1765-04-26,"Ness, Cheshire, England",1815-01-15,"Calais, France",Sir William Hamilton​ ​,1791-01-01,,1.0,0.0,,1.0,,,,,,,,0,F,50.0,26.0,,,,,,,1,model,0,1,0,1,0,53.2775405,-3.0482035,,,
Emma Frances Heming,1978-06-18,Malta,,,Walter Bruce Willis,2009-01-01,,1.0,0.0,2.0,0.0,1955-03-19,"Idar-Oberstein, West Germany",,,2.0,1.0,5.0,0,F,45.0,31.0,,68.0,54.0,,14.0,23.0,1,model,1,1,0,0,0,35.937496,14.375416,49.71452799999999,7.3071512,1634.9813089188383
Jade Sheena Jezebel Jagger,1971-10-21,"Paris, France",,,Adrian Fillary ​,2012-01-01,,1.0,0.0,3.0,0.0,,,,,,,,0,F,52.0,41.0,,,,,11.0,,1,model,0,1,0,0,0,48.856614,2.3522219,,,
Eva Ulrika Jonsson,1967-08-16,"Sollentuna, Sweden",,,John Turnbull​ ​,1990-01-01,1995-01-01,3.0,3.0,4.0,0.0,,,,,,,,0,F,56.0,23.0,28.0,,,,5.0,,2,"model, actor/actress",0,1,1,0,0,59.43049730000001,17.950916,,,
Katrina Turquotte,1983-07-16,"Victoria, Hong Kong",,,Vicky Kaushal ​,2021-01-01,,1.0,0.0,,0.0,1988-05-16,"Bombay, Maharashtra, India",,,1.0,0.0,,1,F,40.0,38.0,,35.0,33.0,,2.0,5.0,2,"model, actor/actress",0,1,0,0,0,,,19.0759837,72.8776559,
Myleene Angela Klass,1978-04-06,"Great Yarmouth, England",,,Graham Quinn ​,2011-01-01,2013-01-01,1.0,1.0,3.0,0.0,,,,,,,,0,F,45.0,33.0,35.0,,,,2.0,,2,"model, singer",0,1,1,0,0,52.598233,1.728047,,,
Lucie Le Bailly de La Falaise,1973-02-19,Wales,,,Marlon Richards ​,1994-01-01,,1.0,0.0,3.0,0.0,,,,,,,,0,F,50.0,21.0,,,,,29.0,,1,model,0,1,0,0,0,52.1306607,-3.7837117,,,
Susan Miller,,,,,James Hunt​ ​,1974-01-01,1976-01-01,2.0,2.0,,0.0,1947-08-29,,1993-06-15,,,,,0,F,,,,46.0,27.0,29.0,2.0,,1,model,0,1,1,0,1,,,,,
Vickie Marie Milagrosa Sausa Rushton,1992-05-08,"Bacolod, Negros Occidental, Philippines",,,Jason Abalos ​,2022-01-01,,1.0,0.0,1.0,0.0,,,,,,,,0,F,31.0,30.0,,,,,1.0,,1,model,0,1,0,0,0,10.6713397,122.9510716,,,
Anna Caroline Ryder Richardson,1964-01-29,"Swansea, Wales",,,Colin MacDougall​ ​,2005-01-01,,1.0,1.0,2.0,0.0,,,,,,,,0,F,59.0,41.0,,,,,18.0,,1,model,0,1,1,0,0,51.62144,-3.943645999999999,,,
Stella Tennant,1970-12-17,"London, England",2020-12-22,"Duns, Scottish Borders, Scotland",David Lasnet​ ​,1999-01-01,2020-01-01,1.0,1.0,4.0,0.0,,,,,,,,0,F,50.0,29.0,50.0,,,,21.0,,1,model,0,1,1,1,0,51.5072178,-0.1275862,,,
Georgina Ashley Diaz Wilson,1986-02-12,"Wichita, Kansas, U.S.",,,Arthur Burnand ​,2016-01-01,,1.0,0.0,3.0,0.0,,,,,,,,0,F,37.0,30.0,,,,,7.0,,2,"model, actor/actress",0,1,0,0,0,37.68717609999999,-97.33005299999999,,,
Margaret Nales Wilson,1989-03-15,"Bacolod City, Negros Occidental Province, Visayas, Philippines",,,Victor Consunji​ ​,2010-01-01,2021-01-01,1.0,1.0,1.0,0.0,,,,,,,,0,F,34.0,21.0,32.0,,,,11.0,,1,model,0,1,1,0,0,10.6713397,122.9510716,,,
Paul Antony Young,1956-01-17,"Luton, Bedfordshire, England",,,Stacey Smith ​ ​,1987-01-01,,1.0,0.0,3.0,1.0,,,,,,,,0,F,67.0,31.0,,,,,,,1,model,0,1,0,0,0,51.8786707,-0.4200255,,,
Dilyana Popova,1981-09-24,"Gulyantsi, Pleven Province, Bulgaria",,,Asen Blatechki ​,2014-01-01,,1.0,0.0,1.0,0.0,,,,,,,,0,F,42.0,33.0,,,,,9.0,,2,"model, actor/actress",0,1,0,0,0,43.643574,24.6955006,,,
Zung Cer Mawi,1982-07-23,"Falam, Chin State, Burma",,,Tsit Naing ​,2014-01-01,,1.0,0.0,2.0,0.0,,,,,,,,0,F,41.0,32.0,,,,,9.0,,2,"model, actor/actress",0,1,0,0,0,22.9141928,93.6750005,,,
Yun Waddy Lwin Moe,1998-10-21,"Yangon, Myanmar",,,Htet Oo Hlaing ​,2018-01-01,,1.0,0.0,,0.0,,,,,,,,0,F,25.0,20.0,,,,,5.0,,1,model,0,1,0,0,0,16.840939,96.173526,,,
Eaindra Kyaw Zin,1977-04-24,"Rangoon, Burma",,,Pyay Ti Oo,2011-01-01,,1.0,0.0,2.0,0.0,1978-11-30,"Chaunggaung Village, Pyay, Bago Division, Myanmar",,,1.0,0.0,2.0,1,F,46.0,34.0,,45.0,33.0,,12.0,1.0,2,"model, actor/actress",1,1,0,0,0,16.840939,96.173526,18.85,95.39999999999999,237.92605260171854
Willow Allen,1999-01-01,Inuvik,,,Cale Kindrachuk ​,2022-01-01,,1.0,0.0,,0.0,,,,,,,,0,F,24.0,23.0,,,,,1.0,,1,model,0,1,0,0,0,68.3593674,-133.7294462,,,
Natasha Tonya Henstridge,1974-08-15,"Springdale, Newfoundland and Labrador, Canada",,,Damian Robert Chapa,1995-01-01,1996-01-01,2.0,2.0,2.0,0.0,1963-10-29,"Dayton, Ohio, U.S.",,,2.0,2.0,,1,F,49.0,21.0,22.0,60.0,32.0,33.0,1.0,11.0,2,"model, actor/actress",1,1,1,0,0,49.4974324,-56.07315029999999,39.7589478,-84.1916069,2455.146566648628
Armeena Rana Khan,,"Toronto, Ontario, Canada",,,Fesl Khan ​,2020-01-01,,1.0,0.0,,0.0,,,,,,,,0,F,,,,,,,3.0,,2,"model, actor/actress",0,1,0,0,0,43.653226,-79.3831843,,,
Maye Haldeman,1948-04-19,"Regina, Saskatchewan, Canada",,,Errol Musk​ ​,1970-01-01,1979-01-01,1.0,1.0,1.0,0.0,,,,,,,,0,F,75.0,22.0,31.0,,,,9.0,,1,model,0,1,1,0,0,50.4452112,-104.6188944,,,
Karen Anne Villeneuve,1972-06-06,"Edmonton, Alberta, Canada",,,Mark Richard Gordon,1997-01-01,2003-01-01,2.0,1.0,3.0,0.0,1956-10-10,"Newport News, Virginia, U.S.",,,2.0,1.0,2.0,1,F,51.0,25.0,31.0,67.0,41.0,47.0,6.0,16.0,1,model,0,1,1,0,0,53.5460983,-113.4937266,37.0870821,-76.4730122,3368.195740911256
Pamela Andrea Díaz Saldías,1981-02-26,"Puerto Montt, Chile",,,Manuel Neira​ ​,2006-01-01,2008-01-01,2.0,2.0,3.0,0.0,,,,,,,,0,F,42.0,25.0,27.0,,,,2.0,,1,model,0,1,1,0,0,-41.468917,-72.94113639999999,,,
Lorenza Francesca Izzo Parsons,1989-09-19,"Santiago, Chile",,,Eli Raphael Roth,2014-01-01,2019-01-01,2.0,1.0,,0.0,1972-04-18,"Newton, Massachusetts, U.S.",,,1.0,1.0,,1,F,34.0,25.0,30.0,51.0,42.0,47.0,5.0,17.0,2,"model, actor/actress",1,1,1,0,0,-33.4488897,-70.6692655,42.3370413,-71.20922139999999,8427.191037238948
Constanza Patricia Piccoli Molina,1992-11-29,"Santiago, Chile",,,Nicolás Achá ​,2021-01-01,,1.0,0.0,,0.0,,,,,,,,0,F,31.0,29.0,,,,,2.0,,2,"model, actor/actress",0,1,0,0,0,-33.4488897,-70.6692655,,,
Leonor Magdalena Varela Palma,1972-12-29,"Santiago, Chile",,,Lucas Akoskin ​,2013-01-01,,1.0,0.0,2.0,0.0,,,,,,,,0,F,51.0,41.0,,,,,10.0,,2,"model, actor/actress",0,1,0,0,0,-33.4488897,-70.6692655,,,
Catalina Andrea Vera Cordero,1987-11-01,"Santiago, Chile",,,Nicolás Soletic ​,2016-01-01,,1.0,0.0,,0.0,,,,,,,,0,F,36.0,29.0,,,,,7.0,,1,model,0,1,0,0,0,-33.4488897,-70.6692655,,,
Yang Ying,1989-02-28,"Shanghai, China",,,Huang Xiaoming​ ​,2015-01-01,2022-01-01,1.0,1.0,1.0,0.0,1977-11-13,"Qingdao, Shandong, China",,,1.0,1.0,1.0,0,F,34.0,26.0,33.0,46.0,38.0,45.0,7.0,12.0,3,"model, actor/actress, singer",0,1,1,0,0,31.230416,121.473701,36.0662299,120.38299,547.1010986031754
Ge Tian,1988-12-25,"Jinan, Shandong, China",,,Liu Xiang​ ​,2014-01-01,2015-01-01,1.0,1.0,,0.0,,,,,,,,0,F,35.0,26.0,27.0,,,,1.0,,2,"model, actor/actress",0,1,1,0,0,36.6518399,117.12009,,,
Xiong Dailin,1980-10-10,"Nanjing, Jiangsu, China",,,Ken Kwok ​,2016-01-01,,1.0,0.0,,0.0,,,,,,,,0,F,43.0,36.0,,,,,7.0,,2,"model, actor/actress",0,1,0,0,0,32.0583799,118.79647,,,
Jia Xiaochen,1982-09-20,"Jinan, Shandong, China",,,Fan Siu-wong,2016-01-01,,1.0,0.0,1.0,0.0,1973-06-19,British Hong Kong,,,1.0,0.0,2.0,0,F,41.0,34.0,,50.0,43.0,,7.0,9.0,2,"model, actor/actress",1,1,0,0,0,36.6518399,117.12009,,,
Hillarie Danielle Ang Parungao,1991-03-18,"Solano, Nueva Vizcaya, Philippines",,,Arllie Donato ​,2019-01-01,,1.0,0.0,,0.0,,,,,,,,0,F,32.0,28.0,,,,,4.0,,1,model,0,1,0,0,0,16.5271332,121.1824925,,,
Qin Shupei,1990-08-10,"Kaifeng, Henan, China",,,Zhao Lei​ ​,2012-01-01,2015-01-01,1.0,1.0,,0.0,,,,,,,,0,F,33.0,22.0,25.0,,,,3.0,,1,model,0,1,1,0,0,34.7972599,114.30731,,,
Fei Fei Sun,1989-03-20,"Weifang, Shandong, China",,,Liang Zi ​,2017-01-01,,1.0,0.0,,0.0,,,,,,,,0,F,34.0,28.0,,,,,6.0,,1,model,0,1,0,0,0,36.7068599,119.16176,,,
Tang Jiali ,1976-07-13,"Anhui,Hefei, P.R.China",,,Shen Dong​ ​,1998-01-01,2007-01-01,1.0,1.0,,0.0,,,,,,,,0,F,47.0,22.0,31.0,,,,9.0,,1,model,0,1,1,0,0,31.8205699,117.22901,,,
Xi Mengyao,1989-03-18,"Shanghai, China",,,Mario Ho ​,2019-01-01,,1.0,0.0,1.0,0.0,,,,,,,,0,F,34.0,30.0,,,,,4.0,,1,model,0,1,0,0,0,31.230416,121.473701,,,
Zhang Yan ,1987-03-28,"Kunshan, Jiangsu, China",,,He Jie ​,2018-01-01,,1.0,0.0,1.0,0.0,,,,,,,,0,F,36.0,31.0,,,,,5.0,,2,"model, actor/actress",0,1,0,0,0,31.1823199,121.00715,,,
Zhang Zixuan,1984-02-06,"Beijing, China",,,Yang Yiliu​ ​,2011-01-01,2015-01-01,2.0,1.0,,0.0,,,,,,,,0,F,39.0,27.0,31.0,,,,4.0,,2,"model, actor/actress",0,1,1,0,0,39.904211,116.407395,,,
Zhang Ziyi,1979-02-09,"Beijing, China",,,Wang Feng ​,2015-01-01,,1.0,0.0,,0.0,1971-06-29,"Beijing, China",,,3.0,2.0,4.0,0,F,44.0,36.0,,52.0,44.0,,8.0,8.0,3,"model, actor/actress, dancer",0,1,0,0,0,39.904211,116.407395,39.904211,116.407395,0.0
Zhou Na ,1982-08-26,"Qiandongnan Miao and Dong Autonomous Prefecture, Guizhou, China",,,Lin Didi ​,2007-01-01,2010-01-01,1.0,1.0,,0.0,,,,,,,,0,F,41.0,25.0,28.0,,,,3.0,,2,"model, actor/actress",0,1,1,0,0,26.5836399,107.98416,,,
Paula Andrea Betancur Arroyave,1972-06-01,"Medellín, Antioquia, Colombia",,,Armando Di Pompeo​ ​,1993-01-01,1994-01-01,3.0,2.0,3.0,0.0,,,,,,,,0,F,51.0,21.0,22.0,,,,1.0,,1,model,0,1,1,0,0,6.2476376,-75.56581530000001,,,
Ximena Córdoba Lodoño,1979-11-04,"Medellin, Colombia",,,Carlos Rojas​ ​,2005-01-01,2017-01-01,1.0,1.0,1.0,0.0,,,,,,,,0,F,44.0,26.0,38.0,,,,12.0,,1,model,0,1,1,0,0,6.2476376,-75.56581530000001,,,
Ana Lucía Domíngez Tobón,1983-12-02,"Bogotá, Colombia",,,David Alberto García​ ​,2001-01-01,2003-01-01,2.0,1.0,,0.0,,,,,,,,0,F,40.0,18.0,20.0,,,,2.0,,1,model,0,1,1,0,0,4.710988599999999,-74.072092,,,
Zharick Andrea León Villalba,1974-11-17,"Cartagena, Colombia",,,Martín Karpan​ ​,2007-01-01,2009-01-01,2.0,2.0,2.0,0.0,,,,,,,,0,F,49.0,33.0,35.0,,,,2.0,,1,model,0,1,1,0,0,10.3932277,-75.4832311,,,
Catalina Maya Arango,1980-07-28,"Betulia, Colombia",,,Adrián Fernández​ ​,2005-01-01,2012-01-01,2.0,1.0,2.0,0.0,,,,,,,,0,F,43.0,25.0,32.0,,,,7.0,,2,"journalist, model",0,1,1,0,0,6.11278,-75.98467,,,
María Margarita Muñoz Parra,1987-09-18," Pitalito, Huila, Colombia",,,Misael Browarnik Beiguel,2013-01-01,,1.0,0.0,,0.0,1976-06-10,"Buenos Aires, Argentina",,,1.0,,,1,F,36.0,26.0,,47.0,37.0,,10.0,11.0,1,model,1,1,0,0,0,1.8563309,-76.04616109999999,-34.6036844,-58.3815591,4453.366174465949
Paola Andrea Rey Arciniegas,1979-12-19,"San Gil, Santander, Colombia",,,Juan Carlos Vargas ​,2010-01-01,,1.0,0.0,2.0,0.0,,,,,,,,0,F,44.0,31.0,,,,,13.0,,2,"model, actor/actress",0,1,0,0,0,6.554824,-73.13412,,,
Maribel Del Rocío Fernández García,1959-05-29,"San José, Costa Rica",,,Marco Chacón ​,2010-01-01,,1.0,0.0,,0.0,,,,,,,,0,F,64.0,51.0,,,,,13.0,,2,"model, actor/actress",0,1,0,0,0,9.9280694,-84.0907246,,,
Nina Morić,1976-07-22,"Zagreb, SR Croatia, SFR Yugoslavia",,,Fabrizio Corona​ ​,2001-01-01,2007-01-01,1.0,1.0,1.0,0.0,1974-03-29,"Catania, Sicily, Italy",,,1.0,1.0,1.0,1,F,47.0,25.0,31.0,49.0,27.0,33.0,6.0,2.0,1,model,0,1,1,0,0,45.8150108,15.981919,37.5078772,15.0830304,926.7066160959844
Ariadna Romero,1986-09-19,"Fomento, Cuba ",,,Lorenzo Gergati​ ​,2012-01-01,2015-01-01,1.0,1.0,1.0,0.0,,,,,,,,0,F,37.0,26.0,29.0,,,,3.0,,2,"model, actor/actress",0,1,1,0,0,22.0983236,-79.72316119999999,,,
Šárka Cojocarová,1989-01-16,"Svobodné Heřmanice, Czechoslovakia",,,Karel Klemens ​,2013-01-01,,1.0,0.0,2.0,0.0,,,,,,,,0,F,34.0,24.0,,,,,10.0,,1,model,0,1,0,0,0,49.9460468,17.674265,,,
Taťána Kuchařová,1987-12-23,"Trnava, Czechoslovakia",,,Ondřej Gregor Brzobohatý​ ​,2016-01-01,2022-01-01,1.0,1.0,,0.0,,,,,,,,0,F,36.0,29.0,35.0,,,,6.0,,2,"model, dancer",0,1,1,0,0,49.296032,17.8419171,,,
Karolína Kurková,1984-02-28,"Děčín, Czechoslovakia",,,Archie Drury ​,2009-01-01,,1.0,0.0,3.0,0.0,,,,,,,,0,F,39.0,25.0,,,,,14.0,,2,"model, actor/actress",0,1,0,0,0,50.77255630000001,14.2127612,,,
Monika Leová,1991-07-23,"Prague, Czechoslovakia",,,Martin Košín ​,2018-01-01,,1.0,0.0,,0.0,,,,,,,,0,F,32.0,27.0,,,,,5.0,,1,model,0,1,0,0,0,50.0755381,14.4378005,,,
Iveta Lutovská,1983-05-14,"Jindřichův Hradec, Czechoslovakia",,,Jaroslav Vít ​,2011-01-01,,1.0,0.0,,0.0,,,,,,,,0,F,40.0,28.0,,,,,12.0,,1,model,0,1,0,0,0,49.1444823,15.0061389,,,
Veronika Machová,1990-08-17,"Rokycany, Czechoslovakia",,,Roman Červenka ​,2015-01-01,,1.0,0.0,1.0,0.0,,,,,,,,0,F,33.0,25.0,,,,,8.0,,1,model,0,1,0,0,0,49.7380972,13.5928926,,,
Kateřina Průšová,1983-12-01,"Liberec, Czechoslovakia",,,Vladimír Konvalinka​ ​,2008-01-01,2011-01-01,1.0,1.0,,0.0,,,,,,,,0,F,40.0,25.0,28.0,,,,3.0,,1,model,0,1,1,0,0,50.76627999999999,15.0543387,,,
Alena Šeredová,1978-03-21,"Prague, Czechoslovakia",,,Gianluigi Buffon​ ​,2011-01-01,2014-01-01,2.0,1.0,3.0,0.0,,,,,,,,0,F,45.0,33.0,36.0,,,,3.0,,2,"model, actor/actress",0,1,1,0,0,50.0755381,14.4378005,,,
Lucie Králová,1982-02-10,"Teplice, Czechoslovakia",,,Zdeněk Kaufmann​ ​,2008-01-01,2012-01-01,2.0,1.0,3.0,0.0,,,,,,,,0,F,41.0,26.0,30.0,,,,4.0,,1,model,0,1,1,0,0,50.6444579,13.835284,,,
Ivana Marie Zelníčková,1949-02-20,"Gottwaldov, Czechoslovak Socialist Republic",2022-07-14,"Manhattan, New York City, U.S.",Alfred Winklmayr​ ​,1971-01-01,1973-01-01,4.0,4.0,3.0,0.0,,,,,,,,0,F,73.0,22.0,24.0,,,,2.0,,3,"musician, model, writers",0,1,1,1,0,49.2244365,17.6627635,,,
Lucie Váchová,1984-08-04,"Příbram, Czechoslovakia",,,David Křížek ​,2009-01-01,,1.0,0.0,1.0,0.0,,,,,,,,0,F,39.0,25.0,,,,,14.0,,1,model,0,1,0,0,0,49.685432,13.9989449,,,
Jitka Válková,1991-11-11,"Třebíč, Czechoslovakia",,,Lukáš Boho ​,2015-01-01,2020-01-01,1.0,1.0,,0.0,,,,,,,,0,F,32.0,24.0,29.0,,,,5.0,,2,"model, singer",0,1,1,0,0,49.2147869,15.8795516,,,
Gurli Ingeborg Elna Andresen,1907-02-04,"Copenhagen, Denmark",1959-02-05,"Venice, California, U.S.",Stanisŀaw Mlotkowski​ ​,1929-01-01,1935-01-01,2.0,2.0,1.0,0.0,,,,,,,,0,F,52.0,22.0,28.0,,,,6.0,,2,"model, actor/actress",0,1,1,1,0,55.6760968,12.5683371,,,
Sarah Backhaus Grünewald,1984-02-05,Germany,,,Rasmus Backhaus ​,2014-01-01,,1.0,0.0,1.0,0.0,,,,,,,,0,F,39.0,30.0,,,,,9.0,,1,model,0,1,0,0,0,51.165691,10.451526,,,
Hanne Karin Blarke Bayer,1940-09-22,"Frederiksberg, Denmark",2019-12-14,"Paris, France",Jean-Luc Godard​ ​,1961-01-01,1965-01-01,4.0,3.0,,0.0,1930-12-03,"Paris, France",2022-09-13,"Rolle, Switzerland",3.0,2.0,,0,F,79.0,21.0,25.0,92.0,31.0,35.0,4.0,10.0,3,"model, actor/actress, director",0,1,1,1,1,55.677069,12.513321,48.856614,2.3522219,1024.259550067507
Gitte Nielsen,1963-07-15,"Rødovre, Denmark",,,Kasper Winding​ ​,1983-01-01,1984-01-01,5.0,4.0,5.0,0.0,,,,,,,,0,F,60.0,20.0,21.0,,,,1.0,,2,"model, actor/actress",0,1,1,0,0,55.673514,12.465726,,,
Caroline Brasch Nielsen,1993-06-21,"Copenhagen, Denmark",,,Frederik Bille Brahe​ ​,2018-01-01,,1.0,0.0,1.0,0.0,,,,,,,,0,F,30.0,25.0,,,,,5.0,,1,model,0,1,0,0,0,55.6760968,12.5683371,,,
Josephine Skriver Karlsen,1993-04-14,"Copenhagen, Denmark",,,Alexander Michael DeLeon,2022-01-01,,1.0,0.0,1.0,0.0,1989-04-08,"Las Vegas, Nevada, U.S.",,,1.0,1.0,,1,F,30.0,29.0,,34.0,33.0,,1.0,4.0,1,model,1,1,0,0,0,55.6760968,12.5683371,36.171563,-115.1391009,8665.964837890522
Grethe Karen Thygesen,1927-03-30,"Hareskovby, Denmark",2018-01-06,"Manhattan, New York City, U.S.",Al Trilla​ ​,1952-01-01,1953-01-01,4.0,3.0,1.0,1.0,,,,,,,,0,F,91.0,25.0,26.0,,,,1.0,,2,"model, actor/actress",0,1,1,1,0,55.761482,12.399054,,,
Melodía Mir Jiménez,1989-10-01,"Santo Domingo, Dominican Republic",,,Tomasz Gudzowaty ​,2014-01-01,,1.0,0.0,,0.0,1971-09-19,"Warsaw, Poland",,,,,,0,F,34.0,25.0,,52.0,43.0,,9.0,18.0,1,model,0,1,0,0,0,18.4860575,-69.93121169999999,52.2296756,21.0122287,8456.384443740597
Licett Morillo Montero,,"Santo Domingo, Dominican Republic",,,Ángel Feliz ​,2021-01-01,,1.0,0.0,,0.0,,,,,,,,0,F,,,,,,,2.0,,1,model,0,1,0,0,0,18.4860575,-69.93121169999999,,,
Renata Soñé,1982-08-06,"New York City, New York, U.S.",,,Eduardo Guerra Gutiérrez​ ​,2006-01-01,,1.0,0.0,2.0,0.0,,,,,,,,0,F,41.0,24.0,,,,,17.0,,1,model,0,1,0,0,0,40.7127753,-74.0059728,,,
Yolanthe Cabau van Kasbergen,1985-03-19,"Ibiza, Balearic Islands, Spain",,,Wesley Sneijder​ ​,2010-01-01,2019-01-01,1.0,1.0,1.0,0.0,,,,,,,,0,F,38.0,25.0,34.0,,,,9.0,,2,"model, actor/actress",0,1,1,0,0,39.0200099,1.4821482,,,
Wilhelmina Gertrud Frieda Behmenburg,1939-05-01,"Culemborg, Gelderland, Netherlands",1980-03-01,"Greenwich, Connecticut, U.S.",Bruce Cooper ​,1965-01-01,,1.0,0.0,2.0,0.0,,,,,,,,0,F,41.0,26.0,,,,,15.0,,1,model,0,1,0,1,0,51.9561076,5.240044800000001,,,
Yolanda van den Herik,1964-01-11,"Papendrecht, Netherlands",,,Mohamed Anwar Hadid,1994-01-01,2000-01-01,2.0,2.0,3.0,0.0,1948-11-06,Nazareth (now Israel),,,2.0,2.0,5.0,0,F,59.0,30.0,36.0,75.0,46.0,52.0,6.0,16.0,1,model,0,1,1,0,0,51.8424811,4.6941834,32.699635,35.303546,3255.537588786154
Saskia Holleman,1945-05-20,"Leeuwarden, Netherlands",2013-06-10,"Amsterdam, Netherlands",Peter Verstegen ,1989-01-01,,1.0,0.0,,0.0,,,,,,,,0,F,68.0,44.0,,,,,24.0,,2,"model, actor/actress",0,1,0,1,0,53.2012334,5.7999133,,,
Famke Beumer Janssen,1964-11-05,"Amstelveen, Netherlands",,,Tod Culpan Williams,1995-01-01,2000-01-01,1.0,1.0,,0.0,1968-09-27,"Manhattan, New York, U.S.",,,2.0,1.0,2.0,1,F,59.0,31.0,36.0,55.0,27.0,32.0,5.0,4.0,2,"model, actor/actress",0,1,1,0,0,52.2942064,4.841993599999999,40.7830603,-73.9712488,5854.83637062395
Doutzen Kroes,1985-01-23,"Gytsjerk, Friesland, Netherlands",,,Sunnery James Gorré ​,2010-01-01,,1.0,0.0,2.0,0.0,,,,,,,,0,F,38.0,25.0,,,,,13.0,,2,"model, actor/actress",0,1,0,0,0,53.2410241,5.8907254,,,
Robine Tanya van der Meer,1971-12-19,"Scheveningen, Netherlands",,,Marcus Vanderloo,2011-01-01,,1.0,0.0,2.0,0.0,1968-04-24,"Waddinxveen, Netherlands",,,2.0,1.0,2.0,0,F,52.0,40.0,,55.0,43.0,,12.0,3.0,1,model,1,1,0,0,0,52.1024015,4.3021834,52.0312972,4.6591318,25.64861649343195
Sylvie Françoise Meis,1978-04-13,"Breda, Netherlands",,,Rafael van der Vaart​ ​,2005-01-01,2013-01-01,2.0,2.0,1.0,0.0,,,,,,,,0,F,45.0,27.0,35.0,,,,8.0,,1,model,0,1,1,0,0,51.5719149,4.768323,,,
Karen Mulder,1968-06-01,"Vlaardingen, Netherlands",,,René Bosne​ ​,1988-01-01,1993-01-01,1.0,1.0,1.0,0.0,,,,,,,,0,F,55.0,20.0,25.0,,,,5.0,,1,model,0,1,1,0,0,51.9120668,4.3494366,,,
Lara Catherina Stone,1983-12-20,"Geldrop, Netherlands",,,David Edward Williams,2010-01-01,2015-01-01,2.0,1.0,2.0,0.0,1971-08-20,"Wimbledon, London, England",,,1.0,1.0,1.0,1,F,40.0,27.0,32.0,52.0,39.0,44.0,5.0,12.0,1,model,0,1,1,0,0,51.4228919,5.5571356,51.41833889999999,-0.2206288,400.5323576655925
Yfke Sturm,1981-11-19,"Almere, The Netherlands",,,Imad Izemranie ​,2007-01-01,2010-01-01,1.0,1.0,1.0,0.0,,,,,,,,0,F,42.0,26.0,29.0,,,,3.0,,1,model,0,1,1,0,0,52.3507849,5.2647016,,,
María Fernanda Ríos Villalta,1982-02-20,"Guayaquil, Ecuador",,,Miguel Ángel Álvarez​ ​,2019-01-01,2020-01-01,1.0,1.0,,0.0,,,,,,,,0,F,41.0,37.0,38.0,,,,1.0,,2,"model, singer",0,1,1,0,0,-2.1894128,-79.8890662,,,
